시도명,시군구명,시설명,상세주소,경도,위도,수용가능인원수
충청북도,충주시,충주교현초등학교 운동장,충청북도 충주시 교현동 339-1,127.936678,36.974072,2576
충청북도,충주시,대가미공원,충청북도 충주시 교현동 714-0,127.925197,36.980898,9818
충청북도,충주시,충주중앙중학교 운동장,충청북도 충주시 교현동 1088-0,127.930701,36.981533,1288
충청북도,청주시,석성초등학교 운동장,충청북도 청주시 청원구 북이면 내둔리 344,127.51374087453421,36.74848427755441,2371
충청북도,충주시,충주 관아공원,충청북도 충주시 성내동 232-2,127.936202,36.970501,1179
충청북도,충주시,충주여자중학교 운동장,충청북도 충주시 교현동 369-1,127.934404,36.975957,2076
충청북도,청주시 청원구,대길초등학교 운동장,충청북도 청주시 청원구 북이면 대길리 228,127.55872753147762,36.7323584237813,1152
충청북도,청주시 청원구,북이초등학교 운동장,충청북도 청주시 청원구 북이면 내추리 2-3,127.55554832230935,36.76165220274669,3030
충청북도,청주시 청원구,각리중학교 운동장,충청북도 청주시 청원구 오창읍 각리 637-4,127.42189433167272,36.70875700307633,1503
충청북도,청주시,북이면사무소 주차장,충청북도 청주시 청원구 북이면 신대리 4-8,127.54190751450784,36.73919298440515,909
충청북도,청주시 청원구,오창초등학교 운동장,충청북도 청주시 청원구 오창읍 장대리 238,127.45782100263102,36.74029905707404,3765
충청북도,청주시 청원구,각리초등학교 운동장,충청북도 청주시 청원구 오창읍 각리 646-2,127.4241873941267,36.706407487663014,981
충청북도,제천시,동명초등학교 운동장,충청북도 제천시 천남동 9-45,128.1940202237496,37.13333339366881,562
충청북도,제천시,명지초등학교 운동장,충청북도 제천시 명지동 46-0,128.2054072656209,37.11844776230591,3872
충청북도,제천시,제천시청,충청북도 제천시 천남동 12-2,128.19125719598853,37.13248861744821,6061
충청북도,제천시,제천동중학교 운동장,충청북도 제천시 신백동 21-0,128.23438922710355,37.13273933412353,1543
충청북도,제천시,내토초등학교 운동장,충청북도 제천시 신백동 132-0,128.22884463748372,37.13408970311929,1237
충청북도,제천시,신백초등학교 운동장,충청북도 제천시 신백동 212-7,128.22633255633826,37.128248801002,1150
충청북도,제천시,제천상업고등학교 운동장,충청북도 제천시 신백동 182-3,128.2282301106867,37.13319796406564,4697
충청북도,제천시,두학초등학교 운동장,충청북도 제천시 흑석동 436-0,128.24481763879191,37.13440698489407,926
충청북도,제천시,내토중학교 운동장,충청북도 제천시 장락동 687-1,128.22220921702566,37.144697223523515,1021
충청북도,제천시,장락초등학교 운동장,충청북도 제천시 장락동 626-0,128.22256772279943,37.15430712595068,850
충청북도,제천시,대제중학교 운동장,충청북도 제천시 청전동 526-22,128.19997757635994,37.147024579173646,907
충청북도,제천시,의림지동주민센터 앞(비행장),충청북도 제천시 고암동 1179-1,128.21505283747746,37.16262173550178,25758
충청북도,제천시,제천시립도서관,충청북도 제천시 장락동 672-8,128.22057752992157,37.14502438601789,364
충청북도,제천시,제천여자중학교 운동장,충청북도 제천시 청전동 71-1,128.21895897772126,37.15323750379251,8328
충청북도,제천시,중앙초등학교 운동장,충청북도 제천시 청전동 625-0,128.21516361604836,37.1529359302545,1253
충청북도,제천시,제천보건복지센터,충청북도 제천시 청전동 110-0,128.21588265768335,37.148950409834185,1879
충청북도,제천시,제천고등학교 운동장,충청북도 제천시 청전동 162-0,128.2169855728486,37.14296889194094,2739
충청북도,제천시,대원대학교 운동장,충청북도 제천시 신월동 599-0,128.19140341760334,37.17579546798715,5415
충청북도,제천시,세명대학교 운동장,충청북도 제천시 신월동 557-0,128.19790753995173,37.1800176394354,5862
충청북도,제천시,용두초등학교 운동장,충청북도 제천시 하소동 405-0,128.1969040294983,37.14368553111228,1545
충청북도,제천시,제천의림여자중학교 운동장,충청북도 제천시 하소동 49-2,128.19756470379394,37.142458162851234,3976
충청북도,제천시,남당초등학교 운동장,충청북도 제천시 영천동 760-0,128.202471777215,37.13053402309271,4437
충청북도,제천시,화산초등학교 운동장,충청북도 제천시 화산동 606-0,128.21351591162636,37.12992586645327,1500
충청북도,제천시,제천중앙공원,충청북도 제천시 중앙로2가 26-1,128.21062631278411,37.13957372404277,333
충청북도,제천시,제천종합운동장,충청북도 제천시 화산동 1-0,128.21781054477657,37.13018895503688,3485
충청북도,제천시,제천체육관의병광장,충청북도 제천시 화산동 128-1,128.21505013144989,37.13083632791308,1970
충청북도,제천시,남천초등학교 운동장,충청북도 제천시 남천동 260-0,128.21659093898876,37.136669728158296,5152
충청북도,제천시,제천제일고등학교 운동장,충청북도 제천시 동현동 15-3,128.22059316186807,37.13489451699092,3333
충청북도,제천시,제천여자고등학교 운동장,충청북도 제천시 서부동 740-0,128.20451012318816,37.136028501482,1970
충청북도,제천시,의림초등학교 운동장,충청북도 제천시 의림동 186-0,128.20681913988176,37.141103708780804,5127
충청북도,제천시,제천중학교 운동장,충청북도 제천시 서부동 251-0,128.20394550656383,37.13900817908991,4545
충청북도,충주시,소태초등학교 운동장,충청북도 충주시 소태면 오량리 199-0,127.846911,37.110879,1227
충청북도,충주시,산척초등학교 운동장,충청북도 충주시 산척면 송강리 1282-1,127.957837,37.079280,2200
충청북도,충주시,엄정초등학교 운동장,충청북도 충주시 엄정면 용산리 460-0,127.916232,37.087073,1364
충청북도,충주시,동량초등학교 운동장,충청북도 충주시 동량면 조동리 1426-1,127.965509,37.027338,1364
충청북도,충주시,중앙탑초등학교 운동장,충청북도 충주시 중앙탑면 용전리 691-0,127.830226,37.016304,667
충청북도,충주시,금가초등학교 운동장,충청북도 충주시 금가면 도촌리 400-1,127.922549,37.043817,1333
충청북도,보은군,마로면사무소 공터,충청북도 보은군 마로면 관기리 293-0,127.820381,36.435506,242
충청북도,보은군,세중초등학교 운동장,충청북도 보은군 마로면 세중리 575-2,127.829288,36.387963,939
충청북도,충주시,중원체육공원,충청북도 충주시 중앙탑면 206-3,127.856939,37.029979,2439
충청북도,보은군,속리초등학교 운동장,충청북도 보은군 장안면 장안리 243-2,127.789339,36.470891,1061
충청북도,보은군,장안면사무소 공터,충청북도 보은군 장안면 장안리 265-3,127.789081,36.469794,318
충청북도,보은군,관기초등학교 운동장,충청북도 보은군 마로면 관기리 297-0,127.821216,36.435447,1091
충청북도,보은군,서원리 마을회관 공터,충청북도 보은군 장안면 서원리 299-1,127.798349,36.479771,32
충청북도,보은군,수정초등학교 운동장,충청북도 보은군 속리산면 사내리 181-1,127.822021,36.535839,1212
충청북도,보은군,만수리 마을회관 공터,충청북도 보은군 속리산면 만수리 44-2,127.887852,36.514425,26
충청북도,보은군,속리산면사무소 공터,충청북도 보은군 속리산면 상판리 196-0,127.81047,36.512305,218
충청북도,보은군,종곡초등학교 운동장,충청북도 보은군 보은읍 강신리 54-0,127.749635,36.501605,1061
충청북도,보은군,농업기술센터 주차장,충청북도 보은군 보은읍 강산리 55-2,127.714755,36.503824,606
충청북도,보은군,뱃들공원 공터,충청북도 보은군 보은읍 이평리 175-1,127.723292,36.486351,227
충청북도,보은군,보은국민체육센터 공터,충청북도 보은군 보은읍 이평리 45-6,127.730051,36.48774,2909
충청북도,보은군,보은중학교 운동장,충청북도 보은군 보은읍 이평리 30-1,127.727326,36.485289,1727
충청북도,보은군,충북생명산업고등학교 운동장,충청북도 보은군 보은읍 교사리 123-0,127.715341,36.492013,1970
충청북도,보은군,보은정보고등학교 운동장,충청북도 보은군 보은읍 성주리 171-2,127.734215,36.490755,1121
충청북도,보은군,동광초등학교 운동장,충청북도 보은군 보은읍 교사리 54-1,127.718609,36.487598,1061
충청북도,보은군,보은고등학교 운동장,충청북도 보은군 보은읍 죽전리 61-0,127.721263,36.475325,2515
충청북도,보은군,보은여중고등학교 운동장,충청북도 보은군 보은읍 교사리 116-2,127.716806,36.494435,1667
충청북도,보은군,삼산초등학교 운동장,충청북도 보은군 보은읍 삼산리 156-3,127.717019,36.484427,1501
충청북도,보은군,보은군보건소 주차장,충청북도 보은군 보은읍 삼산리 170-2,127.716224,36.486416,194
충청북도,제천시,송학초등학교 운동장,충청북도 제천시 송학면 시곡리 1164-2,128.2618584554832,37.18491088442312,1112
충청북도,보은군,보은읍사무소 공터,충청북도 보은군 보은읍 삼산리 130-0,127.717098,36.483316,273
충청북도,제천시,입석초등학교 운동장,충청북도 제천시 송학면 입석리 609-2,128.2934873648729,37.19960239957492,3512
충청북도,제천시,송학중학교 운동장,충청북도 제천시 송학면 시곡리 1100-2,128.26508000524976,37.1879980341844,1309
충청북도,제천시,백운중학교 운동장,충청북도 제천시 백운면 평동리 570-0,128.01694939381946,37.1425368876251,3148
충청북도,제천시,백운초등학교 운동장,충청북도 제천시 백운면 평동리 595-2,128.02005020989986,37.14031127997014,862
충청북도,제천시,화당초등학교 운동장,충청북도 제천시 백운면 화당리 105-1,127.98660499690467,37.16885301910598,4437
충청북도,제천시,한송초중학교 운동장,충청북도 제천시 한수면 송계리 753-0,128.08003048596433,36.88269327582435,1152
충청북도,제천시,수산초중학교 운동장,충청북도 제천시 수산면 수산리 349-0,128.18722769656804,36.93572437971049,5560
충청북도,제천시,덕산초등학교 운동장,충청북도 제천시 덕산면 도전리 422-1,128.16968548516132,36.90791155261676,1176
충청북도,제천시,청풍초중학교 운동장,충청북도 제천시 청풍면 물태리 144-3,128.16464552466687,36.99608336673362,2705
충청북도,제천시,왕미초등학교 운동장,충청북도 제천시 봉양읍 미당리 1031-0,128.1579742053595,37.15517968182594,748
충청북도,제천시,금성초등학교 운동장,충청북도 제천시 금성면 구룡리 294-0,128.16548565149745,37.06723442591937,1804
충청북도,옥천군,동이초등학교 운동장,충청북도 옥천군 동이면 평산리 72-1,127.61921462172671,36.28596804571228,939
충청북도,제천시,봉양중학교 운동장,충청북도 제천시 봉양읍 장평리 864-1,128.12434281303916,37.1292555742911,1545
충청북도,옥천군,시외버스공영주차장,충청북도 옥천군 옥천읍 삼양리 206,127.56463636194508,36.30657953099809,961
충청북도,옥천군,옥천중학교 운동장,충청북도 옥천군 옥천읍 삼양리 163,127.56897320225035,36.305099820159484,2039
충청북도,옥천군,공영주차장,충청북도 옥천군 옥천읍 금구리 23-4,127.5703112448147,36.30099094559212,352
충청북도,옥천군,구읍 공영주차장,충청북도 옥천군 옥천읍 하계리 60,127.58081625728674,36.31423535971082,518
충청북도,옥천군,군남초등학교 운동장,충청북도 옥천군 옥천읍 서대리 279,127.58167523742969,36.27760930506341,1424
충청북도,옥천군,삼양초등학교 운동장,충청북도 옥천군 옥천읍 마암리 5-1,127.56892458895965,36.29742841915491,2985
충청북도,옥천군,가화쌈지숲공원,충청북도 옥천군 옥천읍 금구리 223,127.56092723265328,36.30559118049312,803
충청북도,옥천군,옥천여자중학교 운동장,충청북도 옥천군 옥천읍 문정리 455-2,127.57270957838739,36.304088104794786,1645
충청북도,옥천군,죽향초등학교 운동장,충청북도 옥천군 옥천읍 문정리 83,127.57741537241024,36.313312646841524,1491
충청북도,옥천군,옥천공설운동장,충청북도 옥천군 옥천읍 문정리 390,127.57362885904418,36.30255662055246,4888
충청북도,보은군,내북초등학교 운동장,충청북도 보은군 내북면 화전리 5-1,127.652051,36.575025,2667
충청북도,보은군,산외면사무소 공터,충청북도 보은군 산외면 구티리 50-1,127.73279,36.551858,288
충청북도,보은군,산외초등학교 운동장,충청북도 보은군 산외면 구티리 52-2,127.731882,36.552283,818
충청북도,보은군,장갑2리 마을회관 공터,충청북도 보은군 산외면 장갑리 623-1,127.767161,36.572752,61
충청북도,보은군,죽암리 마을회관 공터,충청북도 보은군 회인면 죽암리 71-0,127.598816,36.474729,61
충청북도,보은군,내북면사무소 공터,충청북도 보은군 내북면 창리 63-1,127.663886,36.577803,167
충청북도,보은군,용수리 마을회관 공터,충청북도 보은군 내북면 용수리 21-1,127.651733,36.54584,36
충청북도,보은군,오동리 마을회관 공터,충청북도 보은군 회인면 오동리 131-9,127.592309,36.515279,106
충청북도,보은군,애곡1리 마을회관 공터,충청북도 보은군 회인면 애곡리 98-0,127.615405,36.48968,27
충청북도,보은군,용촌1리 마을회관 공터,충청북도 보은군 회인면 용촌리 97-3,127.596784,36.500247,292
충청북도,보은군,건천리 마을회관 공터,충청북도 보은군 회인면 건천리 170-13,127.624869,36.47855,167
충청북도,괴산군,괴산중학교 운동장,충청북도 괴산군 괴산읍 대사리 165,127.78365571954708,36.796779060508804,287
충청북도,괴산군,괴산고등학교 운동장,충청북도 괴산군 괴산읍 대사리 201,127.780761130948,36.79641235308766,277
충청북도,괴산군,오성중학교 운동장,충청북도 괴산군 감물면 오성리 산19-3,127.86786671537756,36.8426695842794,1564
경상북도,성주군,성밖숲 공터,경상북도 성주군 성주읍 경산리 446-1,128.2797259888861,35.91616271233016,11801
경상북도,성주군,성주초등학교 운동장,경상북도 성주군 성주읍 경산리 183-0,128.2848753646869,35.920103297036746,6540
경상북도,성주군,성주여자고등학교 운동장,경상북도 성주군 성주읍 경산리 550-0,128.2824532535536,35.9169757899766,1176
경상북도,성주군,성주별고을운동장,경상북도 성주군 성주읍 대흥리 901-3,128.25641763862848,35.91289255997057,7597
경상북도,고령군,우곡초등학교 운동장,경상북도 고령군 우곡면 연리 317-4,128.3677402631129,35.633138483019096,1046
경상북도,고령군,우곡중학교 운동장,경상북도 고령군 우곡면 연리 산1-1,128.35601063767228,35.64471179233991,864
경상북도,고령군,쌍림초등학교 운동장,경상북도 고령군 쌍림면 귀원리 134-1,128.24240520227988,35.68182442617077,909
경상북도,성주군,성주중앙초등학교 운동장,경상북도 성주군 성주읍 경산리 718-34,128.28707836395785,35.916498138220284,4400
경상북도,고령군,성산중학교 운동장,경상북도 고령군 성산면 어곡리 129-3,128.36149979642968,35.751098880222756,1212
경상북도,고령군,다산초등학교 운동장,경상북도 고령군 다산면 평리리 257-7,128.45196769980276,35.82456946885546,1576
경상북도,고령군,좌학공원,경상북도 고령군 다산면 좌학리 191,128.44472207888754,35.82266021342993,12727
경상북도,고령군,개진초등학교 운동장,경상북도 고령군 개진면 오사리 45-3,128.36924890747528,35.716753261641834,740
경상북도,고령군,덕곡초등학교 운동장,경상북도 고령군 덕곡면 예리 473,128.23372886902075,35.778249606379504,677
경상북도,고령군,운수초등학교 운동장,경상북도 고령군 운수면 봉평리 797-1,128.29023573004542,35.77004165214467,1493
경상북도,고령군,성산초등학교 운동장,경상북도 고령군 성산면 어곡리 278-4,128.3605127213594,35.74898509602468,1061
경상북도,고령군,고령중학교 운동장,경상북도 고령군 대가야읍 쾌빈리 103-4,128.27182641111625,35.74071063582488,1340
경상북도,고령군,고령초등학교 운동장,경상북도 고령군 대가야읍 연조리 100-0,128.2688345497619,35.73434175511174,2108
경상북도,고령군,고령고등학교 운동장,경상북도 고령군 대가야읍 연조리 92-0,128.2699667284005,35.73442621304057,1736
경상북도,청도군,(구)매전초등학교 운동장,경상북도 청도군 매전면 온막리 42-4,128.8380615147106,35.64231145119218,2061
경상북도,청도군,청도군농촌체험관광센터 운동장,경상북도 청도군 매전면 지전리 101-2,128.8223128918283,35.61233002706555,606
경상북도,청도군,(구)관하초등학교 운동장,경상북도 청도군 매전면 관하리 1226-1,128.81153710712428,35.70405484412621,909
경상북도,청도군,(구)방지초등학교 운동장,경상북도 청도군 금천면 방지리 1203-0,128.90868478076914,35.71236653061897,515
경상북도,청도군,동산초등학교,경상북도 청도군 매전면 동산리 233-5,128.85472038604547,35.66724783256689,515
경상북도,청도군,청도박물관 앞마당,경상북도 청도군 이서면 양원리 129-5,128.68660501454687,35.69401557866145,552
경상북도,청도군,(구)금천초등학교 문명분교 운동장,경상북도 청도군 운문면 신원리 702,128.9612277562731,35.68474931183855,1226
경상북도,청도군,금천중고등학교 운동장,경상북도 청도군 금천면 동곡리 1000-1,128.89501365703913,35.68760275115571,1273
경상북도,청도군,(구)금천초등학교 운동장,경상북도 청도군 금천면 동곡리 905-0,128.89439258121547,35.68994178030015,477
경상북도,청도군,이서초등학교 운동장,경상북도 청도군 이서면 학산리 170,128.66907296327904,35.66381603874519,1065
경상북도,청도군,경북드론고등학교 운동장,경상북도 청도군 풍각면 송서리 553-6,128.62068659966047,35.64097615374514,1727
경상북도,청도군,풍각중학교 각북분교 운동장,경상북도 청도군 각북면 남산리 248,128.58844066061,35.690499122430914,1000
경상북도,청도군,덕산초등학교 운동장,경상북도 청도군 각북면 덕촌리 553-1,128.58357907260833,35.70497755250237,912
경상북도,청도군,이서중학교 운동장,경상북도 청도군 이서면 서원리 331-3,128.66931418806712,35.66232095504719,1093
경상북도,청도군,청도중앙초등학교 운동장,경상북도 청도군 청도읍 원정리 530,128.75217445666016,35.64709524181966,1200
경상북도,청도군,유천초등학교 운동장,경상북도 청도군 청도읍 유호리 623,128.76505839113426,35.57301926476025,2972
경상북도,청도군,각남초등학교 운동장,경상북도 청도군 각남면 예리리 498-0,128.65707107000688,35.64235906220702,2424
경상북도,청도군,(구)대산초등학교,경상북도 청도군 각남면 옥산리 15,128.63651093509412,35.61804505676118,376
전라남도,목포시,제일여자고등학교 운동장,전라남도 목포시 옥암동 983,126.43081619702498,34.807487293732315,848
전라남도,목포시,애향초등학교 운동장,전라남도 목포시 옥암동 1172,126.44185547812646,34.809016424756685,732
경상북도,청도군,월곡쉼터,경상북도 청도군 청도읍 고수리 1035-12,128.75157495907368,35.6348538213799,431
경상북도,청도군,새마을공원,경상북도 청도군 청도읍 고수리 1039-119,128.7425744475956,35.650591071276935,931
전라남도,목포시,부영초등학교 운동장,전라남도 목포시 옥암동 1024,126.43350382643641,34.8033152535232,854
전라남도,목포시,미항초등학교 운동장,전라남도 목포시 옥암동 1102,126.43925278726465,34.80119198235661,856
전라남도,목포시,옥암중학교 운동장,전라남도 목포시 옥암동 1271,126.4527524419734,34.81027619227433,885
전라남도,목포시,옥암초등학교 운동장,전라남도 목포시 옥암동 1270,126.45281820885475,34.81122748119189,804
전라남도,목포시,하당중학교 운동장,전라남도 목포시 옥암동 963,126.42875603723611,34.81022495935776,788
전라남도,목포시,청호초등학교 운동장,전라남도 목포시 옥암동 966,126.42771413657039,34.80973185434273,909
전라남도,목포시,임성초등학교 운동장,전라남도 목포시 석현동 96-1,126.43610274309015,34.82480766231686,1616
전라남도,목포시,석현초등학교 운동장,전라남도 목포시 석현동 1172,126.42458835136226,34.81479152994929,818
전라남도,목포시,중앙고등학교 운동장,전라남도 목포시 대양동 208-4,126.42493620954606,34.83498190436754,1612
전라남도,목포시,용해초등학교 운동장,전라남도 목포시 용해동 974,126.3964082125397,34.81877811733616,1053
전라남도,목포시,대연초등학교 운동장,전라남도 목포시 용해동 631,126.3993971421537,34.82046340699283,1439
전라남도,목포시,신흥초등학교 운동장,전라남도 목포시 상동 1017,126.42509305636663,34.7994123650269,936
전라남도,목포시,한빛초등학교 운동장,전라남도 목포시 상동 887,126.42245177002422,34.8033502371484,1279
전라남도,목포시,이로초등학교 운동장,전라남도 목포시 용해동 240-2,126.40665576431375,34.80480038883732,1461
전라남도,목포시,제일중학교 운동장,전라남도 목포시 용해동 170-5,126.40764693958474,34.796175008510815,4269
전라남도,목포시,상동초등학교 운동장,전라남도 목포시 상동 364,126.41189054373918,34.813729224216495,729
전라남도,목포시,하당초등학교 운동장,전라남도 목포시 상동 820,126.41922312045286,34.80629064120779,1382
전라남도,목포시,목여상 운동장,전라남도 목포시 상동 525,126.4099257103057,34.80748146404034,1180
전라남도,목포시,유경주차장,전라남도 목포시 보광동2가 2,126.38809110020692,34.78765866171892,57
전라남도,목포시,유달초등학교 운동장,전라남도 목포시 유달동 8-0,126.37929521174355,34.786070538207284,2302
전라남도,목포시,덕인중학교 운동장,전라남도 목포시 죽교동 30,126.37283283703225,34.798495731258384,785
전라남도,목포시,항도여자중학교 운동장,전라남도 목포시 상동 327,126.41124561021917,34.81624115082421,1201
경상북도,성주군,공원(금봉리숲) 공터,경상북도 성주군 가천면 금봉리 812-11,128.15117650849209,35.884549748933786,1667
전라남도,목포시,대성초등학교 운동장,전라남도 목포시 대성동 212,126.38031413809485,34.79942564386779,1820
전라남도,목포시,남초등학교 운동장,전라남도 목포시 호남동 567,126.3909275458454,34.7911582018988,2661
경상북도,성주군,용암초등학교 운동장,경상북도 성주군 용암면 상언리 121-0,128.33899604175238,35.84504643976444,3813
경상북도,성주군,수륜초등학교 운동장,경상북도 성주군 수륜면 신파리 41-0,128.19194252741028,35.8338951816154,2347
경상북도,성주군,수륜중학교 운동장,경상북도 성주군 수륜면 신파리 84-1,128.19618816885847,35.83102537949698,2211
경상북도,성주군,가천초등학교 운동장,경상북도 성주군 가천면 창천리 574-0,128.16778207187483,35.885205471452025,3355
경상북도,성주군,용암중학교 운동장,경상북도 성주군 용암면 본리리 724-0,128.3146697096496,35.84089976060051,3636
경상북도,성주군,명인정보고등학교 운동장,경상북도 성주군 선남면 도성리 1111-1,128.36346760250223,35.8856016567566,1061
경상북도,성주군,선남초등학교 운동장,경상북도 성주군 선남면 관화리 873-0,128.3520315619334,35.90650476459018,909
전라남도,해남군,산이초등학교운동장,전라남도 해남군 산이면 초송리 593,126.44687228544592,34.6434042403301,1676
경상북도,성주군,성주고등학교 운동장,경상북도 성주군 성주읍 금산리 1158-0,128.2732194281651,35.93830934182618,2871
경상북도,성주군,성주중학교 운동장,경상북도 성주군 성주읍 예산리 640-0,128.28334589750122,35.92849188081883,8099
경상북도,성주군,도원초등학교 운동장,경상북도 성주군 선남면 소학리 587-0,128.3819296157659,35.896601548869484,1152
전라남도,해남군,옥천초등학교운동장,전라남도 해남군 옥천면 영춘리 573-1,126.64970711191545,34.567922298479054,3022
전라남도,해남군,계곡초등학교운동장,전라남도 해남군 계곡면 성진리 231-11,126.656421620049,34.6460447723688,1039
전라남도,해남군,마산초등학교운동장,전라남도 해남군 마산면 화내리 678-1,126.572802648912,34.6185458277663,1000
전라남도,해남군,황산초등학교운동장,전라남도 해남군 황산면 남리리 31-32,126.427476303533,34.5760443308145,1672
전라남도,해남군,서정초등학교운동장,전라남도 해남군 송지면 서정리 90,126.56115198418625,34.3889794508196,606
전라남도,해남군,북평초등학교운동장,전라남도 해남군 북평면 남창리 142,126.63134180214195,34.40792635324236,1214
전라남도,해남군,북일초등학교운동장,전라남도 해남군 북일면 흥촌리 109-0,126.676845,34.467052,4545
전라남도,해남군,송지초등학교운동장,전라남도 해남군 송지면 산정리 724-1,126.52038843084524,34.36890435092888,2252
전라남도,해남군,해남공업고등학교운동장,전라남도 해남군 해남읍 남외리 24-1,126.5934014013592,34.57191231957077,1091
전라남도,해남군,삼산초등학교운동장,전라남도 해남군 삼산면 충리 97-4,126.60778011422029,34.51501291769728,1542
전라남도,해남군,화산초등학교운동장,전라남도 해남군 화산면 방축리 365-1,126.516270291242,34.4920096973194,3105
전라남도,해남군,현산초등학교운동장,전라남도 해남군 현산면 일평리 876-18,126.552825330358,34.4588994001136,2860
전라남도,해남군,우슬경기장,전라남도 해남군 해남읍 해리 2,126.62234743694026,34.56832671682975,4273
전라남도,해남군,해남군축구전용구장3,전라남도 해남군 해남읍 해리 6-1,126.61932383623709,34.56745482602262,2012
전라남도,해남군,해남군축구전용구장1,전라남도 해남군 해남읍 해리 4-18,126.61998110609566,34.56838567605491,2003
전라남도,해남군,해남군축구전용구장2,전라남도 해남군 해남읍 해리 4-8,126.61895553634847,34.5686432964053,1976
전라남도,강진군,마량초등학교 운동장,전라남도 강진군 마량면 마량리 1028-3,126.81393563120254,34.45713118216417,789
전라남도,강진군,병영초등학교 운동장,전라남도 강진군 병영면 성남리 199-7,126.81504119250117,34.72006965504349,1016
전라남도,강진군,옴천초등학교 운동장,전라남도 강진군 옴천면 개산리 245,126.79547039716884,34.744842298050806,852
전라남도,강진군,마량원포축구장,전라남도 강진군 마량면 원포리 222,126.83305801118736,34.46438975888324,909
전라남도,강진군,하멜기념관(외부공원),전라남도 강진군 병영면 성동리 109,126.81853975720638,34.719446429410205,1374
전라남도,장성군,약수초등학교,전라남도 장성군 북하면 약수리 406-0,126.880603,35.407968,2206
전라남도,강진군,성전초등학교 운동장,전라남도 강진군 성전면 월평리 102,126.70740978592691,34.69342661472366,1750
전라남도,강진군,작천초등학교 운동장,전라남도 강진군 작천면 현산리 5,126.77203762082297,34.7030763847806,1913
전라남도,장성군,약수교회,전라남도 장성군 북하면 약수리 420-6,126.881289,35.407447,18
전라남도,장성군,사거리성당,전라남도 장성군 북이면 사거리 651-0,126.808879,35.427748,18
전라남도,장성군,북이초등학교,전라남도 장성군 북이면 원덕리 351-6,126.804889,35.433109,1339
전라남도,장성군,약수중학교,전라남도 장성군 북하면 약수리 428-1,126.880704,35.406626,4122
전라남도,장성군,월평초등학교,전라남도 장성군 황룡면 월평리 61-2,126.775753,35.290416,1374
전라남도,장성군,황룡중학교,전라남도 장성군 황룡면 장산리 402-0,126.758789,35.297117,1848
전라남도,장성군,서삼초등학교,전라남도 장성군 서삼면 장산리 196-0,126.767738,35.333787,1061
전라남도,장성군,북일초등학교,전라남도 장성군 북일면 오산리 106-1,126.793852,35.384567,1126
전라남도,여수시,여수동초등학교 운동장,전라남도 여수시 공화동 1181,127.74080796516556,34.746983857173426,1758
전라남도,장성군,삼계중학교,전라남도 장성군 삼계면 사창리 339-0,126.666371,35.258083,1123
전라남도,장성군,사창초등학교,전라남도 장성군 삼계면 사창리 270-0,126.666137,35.260327,1293
전라남도,여수시,자산공원,전라남도 여수시 종화동 3,127.75039586938139,34.739475554871845,2242
전라남도,여수시,중앙초등학교 운동장,전라남도 여수시 종화동 943,127.74425999284861,34.7409437454214,1515
전라남도,나주시,공산초등학교 운동장,전라남도 나주시 공산면 금곡리 780,126.61310763193804,34.9408700795633,1435
전라남도,나주시,동강초등학교 운동장,전라남도 나주시 동강면 인동리 355-0,126.56455624222671,34.93807333457314,848
전라남도,나주시,다시초등학교 운동장,전라남도 나주시 다시면 월태리 521,126.63998428834988,35.01762606159569,1331
전라남도,나주시,남평초등학교 운동장,전라남도 나주시 남평읍 동사리 238,126.8460108553868,35.042382927874066,495
전라남도,나주시,세지초등학교 운동장,전라남도 나주시 세지면 오봉리 263,126.74694497451894,34.918802939780306,1239
전라남도,나주시,왕곡초등학교 운동장,전라남도 나주시 왕곡면 월천리 206,126.65489296417631,34.96279878062741,888
전라남도,나주시,반남초등학교 운동장,전라남도 나주시 반남면 신촌리 129,126.65888996765922,34.91141543019634,848
전라남도,나주시,빛누리초등학교 운동장,전라남도 나주시 빛가람동 25-0,126.78529851205722,35.030314520253086,644
전라남도,나주시,빛가람초등학교 운동장,전라남도 나주시 빛가람동 625,126.78560685993207,35.0081239845355,804
전라남도,나주시,영산포초등학교 운동장,전라남도 나주시 이창동 178,126.71463813176463,34.993516935379255,8772
전라남도,나주시,영산포여자중학교 운동장,전라남도 나주시 이창동 136,126.71173888653807,34.99683271414782,1715
충청북도,보은군,회인초등학교 운동장,충청북도 보은군 회인면 중앙리 96-0,127.595778,36.491535,848
충청북도,보은군,회인면사무소 공터,충청북도 보은군 회인면 중앙리 172-2,127.596464,36.494646,227
충청북도,보은군,회인중학교 운동장,충청북도 보은군 회인면 중앙리 130-0,127.596488,36.494064,1212
충청북도,보은군,회남면사무소 공터,충청북도 보은군 회남면 거교리 251-0,127.596464,36.494646,364
충청북도,보은군,수한면사무소 공터,충청북도 보은군 수한면 후평리 238-0,127.698658,36.479568,182
충청북도,보은군,회남초등학교 운동장,충청북도 보은군 회남면 거교리 249-0,127.579963,36.445877,636
충청북도,보은군,수한초등학교 운동장,충청북도 보은군 수한면 소계리 17-2,127.701162,36.458147,697
충청북도,보은군,삼승면사무소 공터,충청북도 보은군 삼승면 원남리 210-5,127.727728,36.395494,416
충청북도,보은군,속리산중학교 운동장,충청북도 보은군 삼승면 내망리 653-0,127.736235,36.392397,1212
충청북도,보은군,판동초등학교 운동장,충청북도 보은군 삼승면 내망리 536-1,127.741573,36.397918,1212
충청북도,보은군,송죽초등학교 운동장,충청북도 보은군 삼승면 송죽리 192-4,127.734859,36.437503,779
충청북도,보은군,벽지리 마을회관 공터,충청북도 보은군 탄부면 벽지리 231-1,127.783377,36.431764,30
충청북도,보은군,기대리 마을회관 공터,충청북도 보은군 마로면 기대리 560-1,127.819071,36.409784,185
충청북도,보은군,탄부면사무소 공터,충청북도 보은군 탄부면 하장리 347-0,127.795919,36.430468,273
충청북도,보은군,보덕중학교 운동장,충청북도 보은군 탄부면 하장리 27-1,127.80578,36.435745,3182
충청북도,보은군,탄부초등학교 운동장,충청북도 보은군 탄부면 덕동리 77-0,127.776924,36.424829,1364
충청북도,증평군,삼보초등학교 운동장,충청북도 증평군 증평읍 초중리 11-19,127.57906467685363,36.77795092682087,3782
충청북도,증평군,증평공업고등학교 운동장,충청북도 증평군 증평읍 증천리 714-0,127.59124478601575,36.781427033373355,4771
충청북도,증평군,증평중학교 운동장,충청북도 증평군 증평읍 증천리 726,127.58993008897198,36.782045341731454,5164
충청북도,영동군,양산초등학교 운동장,충청북도 영동군 양산면 가곡리 293-2,127.66657968381392,36.12463865786919,765
충청북도,영동군,송호국민관광지,충청북도 영동군 양산면 송호리 279,127.67332615963,36.131844719474444,2892
충청북도,영동군,심천초등학교 운동장,충청북도 영동군 심천면 심천리 524-1,127.72465344072407,36.234537646201,944
충청북도,증평군,증평초등학교 운동장,충청북도 증평군 증평읍 증평리 479-0,127.58780329005862,36.782552952848604,9806
충청북도,영동군,양강초등학교 운동장,충청북도 영동군 양강면 묘동리 331-2,127.74696351470267,36.145626369098785,837
충청북도,영동군,용화초등학교 운동장,충청북도 영동군 용화면 용화리 760,127.7659836960761,36.02319522968476,675
충청북도,영동군,학산초등학교 운동장,충청북도 영동군 학산면 서산리 738-1,127.68936392942186,36.09318287795021,1131
충청북도,영동군,노근리 평화공원 주차장,충청북도 영동군 황간면 노근리 657-0,127.88211249696744,36.21142155574802,1333
충청북도,영동군,추풍령 초등학교 운동장,충청북도 영동군 추풍령면 추풍령리 375-1,127.998058,36.214462,1185
충청북도,영동군,매곡초등학교 운동장,충청북도 영동군 매곡면 노천리 53-1,127.93216169146834,36.192160475761504,643
충청북도,영동군,상촌 초등학교 운동장,충청북도 영동군 상촌면 임산리 357-1,127.9118533279602,36.14722020752415,743
충청북도,영동군,용두공원,충청북도 영동군 영동읍 매천리 378-7,127.78375755766344,36.1687433126776,6303
충청북도,영동군,부용초등학교 운동장,충청북도 영동군 영동읍 부용리 224,127.76675993314569,36.16736911780332,756
충청북도,영동군,구룡초등학교 운동장,충청북도 영동군 용산면 구촌리 141-1,127.826841,36.265731,1352
충청북도,영동군,황간고등학교 운동장,충청북도 영동군 황간면 남성리 409,127.91025597268165,36.234667614834876,1881
충청북도,영동군,영동미래고등학교 운동장,충청북도 영동군 영동읍 계산리 270-2,127.77944704381893,36.17836693118736,523
충청북도,영동군,영동체육관,충청북도 영동군 영동읍 매천리 313-0,127.78377429738165,36.16609619063971,1579
충청북도,영동군,레인보우 힐링타운 주차장,충청북도 영동군 영동읍 매천리 131,127.78469764666917,36.16423305091236,1539
충청북도,영동군,영신중학교 운동장,충청북도 영동군 영동읍 매천리 458-1,127.77455728615992,36.16885136016807,463
충청북도,영동군,영동중학교 운동장,충청북도 영동군 영동읍 계산리 78,127.78748057878467,36.170292606148735,2279
충청북도,옥천군,군서면사무소,충청북도 옥천군 군서면 동평리 580,127.52747234083495,36.27945828211647,200
충청북도,옥천군,증약초등학교 운동장,충청북도 옥천군 군북면 증약리 641,127.52332423124454,36.334010523386695,1158
충청북도,옥천군,증약초등학교 대정분교 운동장,충청북도 옥천군 군북면 대정리 577,127.53850147244479,36.389187451799444,991
충청북도,옥천군,이원초등학교 운동장,충청북도 옥천군 이원면 강청리 14-7,127.62279716552219,36.24640221151524,1658
충청북도,옥천군,이원 다목적회관,충청북도 옥천군 이원면 강청리 91-1,127.61847308672232,36.24659978803714,412
충청북도,옥천군,군서초등학교 운동장,충청북도 옥천군 군서면 동평리 551,127.52729412027708,36.278304191258556,1761
충청북도,옥천군,안내중학교 운동장,충청북도 옥천군 안내면 인포리 289,127.65327458794242,36.376629836933304,1245
충청북도,옥천군,청성면사무소,충청북도 옥천군 청성면 산계리 225,127.75979239437116,36.32731698598451,245
충청북도,옥천군,청산초등학교 운동장,충청북도 옥천군 청산면 지전리 34,127.79341622536778,36.34694696801417,1891
충청북도,옥천군,청산면사무소,충청북도 옥천군 청산면 지전리 74-3,127.7919475142803,36.34642165681486,191
충청북도,옥천군,안내초등학교 운동장,충청북도 옥천군 안내면 현리 115-2,127.66104038007256,36.39426245644863,1070
충청북도,옥천군,동이면사무소,충청북도 옥천군 동이면 평산리 976-2,127.62038309397357,36.28366471182611,115
충청북도,옥천군,안남초등학교 운동장,충청북도 옥천군 안남면 연주리 416,127.6723950422997,36.355094230033664,455
충청북도,옥천군,안남면사무소,충청북도 옥천군 안남면 연주리 408-3,127.67285166231146,36.356222161717376,2455
충청북도,괴산군,행정복지센터 광장,충청북도 괴산군 괴산읍 서부리 201-1,127.79093537442373,36.81168713786282,193
충청북도,괴산군,명덕초등학교 운동장,충청북도 괴산군 괴산읍 서부리 335,127.78683741011088,36.80925082060943,272
충청북도,괴산군,괴산종합운동장,충청북도 괴산군 괴산읍 서부리 177,127.78688862935287,36.81167417545534,3358
충청북도,괴산군,괴산미니축구장,충청북도 괴산군 괴산읍 서부리 160-0,127.78703896928477,36.813769492187106,2424
충청북도,괴산군,다목적운동장,충청북도 괴산군 괴산읍 서부리 661,127.78486091201502,36.81444840307066,2691
충청북도,괴산군,괴산북중학교 운동장,충청북도 괴산군 괴산읍 서부리 725,127.78055279967674,36.81545720225895,325
충청북도,진천군,광혜원면사무소,충청북도 진천군 광혜원면 광혜원리 542-10,127.43564053080915,36.993291183116376,1263
충청북도,진천군,광혜원화랑공원,충청북도 진천군 광혜원면 광혜원리 529-2,127.43792994599754,36.99418950201514,1773
충청북도,진천군,광혜원중학교운동장,충청북도 진천군 광혜원면 광혜원리 520-0,127.44014319893827,36.9911592269821,364
충청북도,괴산군,동인초등학교 운동장,충청북도 괴산군 괴산읍 서부리 485,127.78984989970961,36.80567136196097,297
충청북도,진천군,이월면사무소,충청북도 진천군 이월면 노원리 683-4,127.42855604898568,36.925561797197595,1483
충청북도,진천군,이월초등학교 운동장,충청북도 진천군 이월면 송림리 667,127.43134574040734,36.93106026492745,136
충청북도,진천군,이월중학교 운동장,충청북도 진천군 이월면 송림리 455-5,127.42846200786771,36.92699258652761,364
충청북도,진천군,만승초등학교 운동장,충청북도 진천군 광혜원면 광혜원리 79,127.44211995472902,36.9926765510336,364
충청북도,진천군,문백초등학교 운동장,충청북도 진천군 문백면 봉죽리 297,127.43288471911032,36.78627638961693,30
충청북도,진천군,문백면사무소,충청북도 진천군 문백면 옥성리 312-1,127.43735575989905,36.784365942786025,2812
충청북도,진천군,백곡면사무소,충청북도 진천군 백곡면 석현리 293,127.37683792700727,36.88386974744105,787
충청북도,진천군,백곡초등학교 운동장,충청북도 진천군 백곡면 구수리 21-1,127.35955160479519,36.88608896674715,303
충청북도,진천군,덕산읍사무소,충청북도 진천군 덕산면 용몽리 637,127.50936012576695,36.91372375896363,1887
충청북도,진천군,초평면사무소,충청북도 진천군 초평면 용정리 584-8,127.52652579631902,36.845882043219326,1355
충청북도,진천군,구정초등학교 운동장,충청북도 진천군 초평면 용산리 236-1,127.53519021111381,36.780942612098556,303
충청북도,진천군,문상초등학교 운동장,충청북도 진천군 문백면 사양리 38-1,127.47216644322636,36.83754673012188,136
충청북도,진천군,진천중학교 운동장,충청북도 진천군 진천읍 성석리 462,127.44670027062644,36.867819579742786,303
충청북도,진천군,진천역사테마공원,충청북도 진천군 진천읍 장관리 710-0,127.41126933340111,36.869126455772026,10836
충청북도,진천군,한천초등학교 운동장,충청북도 진천군 덕산면 용몽리 518-3,127.50777122782814,36.906678648702616,303
충청북도,진천군,덕산중학교 운동장,충청북도 진천군 덕산면 용몽리 566,127.50951987645236,36.90650843721953,455
경기도,화성시,마도초등학교 운동장,경기도 화성시 마도면 석교리 248,126.77315087623082,37.20386924019748,952
경기도,화성시,청원초등학교 운동장,경기도 화성시 마도면 청원리 228-4,126.76166611392867,37.1880784436085,2902
경기도,화성시,송산초등학교 운동장,경기도 화성시 송산면 사강리 701,126.73267798236157,37.2143491154057,704
경기도,화성시,청룡초등학교 운동장,경기도 화성시 비봉면 청요리 571,126.88873053436956,37.201242814485106,2329
대구광역시,달서구,피터팬공원,대구광역시 달서구 본동 790,128.53967449363859,35.83586857820249,500
충청북도,진천군,문학공원,충청북도 진천군 진천읍 교성리 104,127.43908616325737,36.849383314899804,2924
충청북도,진천군,화랑공원,충청북도 진천군 진천읍 교성리 126,127.44257105017195,36.84949506257417,1017
충청북도,진천군,진천삼수초등학교 운동장,충청북도 진천군 진천읍 읍내리 333-1,127.44090301514228,36.85612510552614,136
충청북도,진천군,진천근린공원(1호),충청북도 진천군 진천읍 읍내리 산3-10,127.4394994124317,36.856651942771116,5058
충청북도,진천군,진천읍사무소,충청북도 진천군 진천읍 읍내리 370-1,127.4413997459511,36.85497605095984,512
충청북도,증평군,형석중학교 운동장,충청북도 증평군 증평읍 미암리 603,127.59314496391403,36.79279093756006,2349
충청북도,증평군,형석고등학교 운동장,충청북도 증평군 증평읍 미암리 603,127.59314496391403,36.79279093756006,2545
충청북도,증평군,죽리초등학교 운동장,충청북도 증평군 증평읍 죽리 308,127.61213462596704,36.75341575729222,1824
충청북도,증평군,도안초등학교 운동장,충청북도 증평군 도안면 화성리 87,127.61136186746714,36.81669193786304,2024
경상북도,청도군,남성현초등학교 운동장,경상북도 청도군 화양읍 삼신리 257,128.71655707521188,35.69611711206693,403
경상북도,청도군,청도고등학교 운동장,경상북도 청도군 청도읍 고수리 840-2,128.7482147169124,35.64101771309441,1763
충청북도,증평군,증평여자중학교 운동장,충청북도 증평군 증평읍 초중리 11-8,127.57928581219832,36.77909620511682,2182
충청북도,증평군,보강천 체육공원 운동장,충청북도 증평군 증평읍 송산리 211-2,127.5761024866563,36.78700532698701,12121
경기도,양주시,백석고등학교 운동장,경기도 양주시 백석읍 오산리 554,126.98663694427124,37.79162625290991,781
경기도,양주시,신지초등학교 운동장,경기도 양주시 백석읍 복지리 156,126.99076364990346,37.78848941198659,830
경기도,양주시,은봉초등학교 운동장,경기도 양주시 백석읍 복지리 303-8,126.9834857002853,37.781524687102866,3056
경기도,양주시,광숭초등학교 운동장,경기도 양주시 삼숭동 186-6,127.10706082988156,37.801564885794406,797
경기도,양주시,푸르네 근린공원,경기도 양주시 고읍동 445,127.07897805642654,37.799937532095605,3337
경기도,양주시,덕현중학교 운동장,경기도 양주시 고읍동 79-33,127.08000436946493,37.7999822759474,746
경상북도,영덕군,창수초등학교 인천분교장 앞 운동장,경상북도 영덕군 창수면 인천리 41,129.29469809051767,36.63397017934401,788
경상북도,청도군,화양초등학교 운동장,경상북도 청도군 화양읍 동상리 158-2,128.70702640951762,35.64748031321711,970
경상북도,청도군,청도공설운동장,경상북도 청도군 화양읍 동천리 502-0,128.72078987541522,35.648847469014136,4273
경상북도,청도군,모계중고등학교 운동장,경상북도 청도군 화양읍 범곡리 117,128.73526324440323,35.64908098091313,1228
경상북도,청도군,청도초등학교 운동장,경상북도 청도군 화양읍 범곡리 495-0,128.7307343080289,35.64816570665728,1200
경기도,양주시,삼숭중학교 운동장,경기도 양주시 삼숭동 679-1,127.1084860169992,37.79756027700048,3038
경기도,여주시,여주시보건소,경기도 여주시 상동 358-3,127.63970160563419,37.29441736804994,600
경기도,여주시,여흥초등학교 운동장,경기도 여주시 상동 110,127.64361241275255,37.29423332429121,1788
경상북도,영덕군,인량리 나라골보리말 체험학교 앞 공터,경상북도 영덕군 창수면 인량리 212,129.37137571490027,36.55187191739969,481
경상북도,영덕군,위정관광 농원 옆 공터,경상북도 영덕군 창수면 신기리 276-1,129.3261351259367,36.54962825832384,745
경상북도,영덕군,창수중학교 운동장,경상북도 영덕군 창수면 신기리 59-7,129.34826189503042,36.54758264920541,1120
경상북도,영덕군,신리초등학교 앞 공터,경상북도 영덕군 창수면 신리리 414,129.27179790466914,36.57744349443765,438
경상북도,영덕군,영덕 룰루랄라 체험캠핑장 앞,경상북도 영덕군 창수면 미곡리 583,129.34173334995344,36.58575017119692,666
경기도,포천시,관인초등학교 운동장,경기도 포천시 관인면 탄동리 664-1,127.25050356705387,38.15662387794799,1418
경기도,포천시,화현초등학교 운동장,경기도 포천시 화현면 화현리 847-1,127.2847403040822,37.901744190541976,788
경기도,포천시,관인고등학교 운동장,경기도 포천시 관인면 탄동리 607-3,127.25115062900315,38.158920701805094,2485
경상북도,영덕군,병곡면 병곡휴게소 주차장(병곡지구),경상북도 영덕군 병곡면 병곡리 353,129.413523525542,36.60564631793971,815
경상북도,영덕군,영리 야산 공터,경상북도 영덕군 병곡면 영리 산172,129.40236905224376,36.593675922745966,112
경상북도,영덕군,농협하나로마트 원황지점,경상북도 영덕군 병곡면 원황리 589-9,129.39955899266985,36.571486431179295,593
경상북도,영덕군,병곡면 영덕경찰수련원 주차장(덕천지구),경상북도 영덕군 병곡면 덕천리 190-42,129.4167051088202,36.568658873201045,171
경기도,포천시,영북고등학교 운동장,경기도 포천시 영북면 운천리 334-3,127.27544588052601,38.0861645579783,1636
경기도,포천시,영북중학교 운동장,경기도 포천시 영북면 운천리 385-1,127.27750342194146,38.09408280905448,2152
경기도,포천시,영북초등학교 운동장,경기도 포천시 영북면 운천리 342-2,127.27680775813457,38.090411186363454,1879
경상북도,영덕군,벌영1리 마을회관 앞 공터,경상북도 영덕군 영해면 벌영리 389-1,129.40162595477008,36.53691435163966,114
경상북도,영덕군,대구카톨릭대학교수련원,경상북도 영덕군 영해면 원구리 146-1,129.37984703345285,36.54015869332655,1181
경상북도,영덕군,해맞이 휴게 주유소,경상북도 영덕군 병곡면 금곡리 10,129.42148422537593,36.64344276352155,812
경상북도,영덕군,병곡면 고래불휴게소 앞 주차장,경상북도 영덕군 병곡면 백석리 204,129.41043800194393,36.62322683336063,386
대구광역시,달서구,애화공원,대구광역시 달서구 본동 616-4,128.53421538415355,35.83294873945436,521
경기도,연천군,전곡고등학교 운동장,경기도 연천군 전곡읍 은대리 506-1,127.06946228758875,38.03451284696279,1455
경기도,연천군,군남초등학교 운동장,경기도 연천군 군남면 진상리 704-1,127.01640681633447,38.067262190752295,1212
경기도,연천군,화진초등학교 운동장,경기도 연천군 군남면 황지리 345-2,127.04000240997917,38.030179422792465,970
경상북도,영덕군,대곡리 마을회관 앞 공터,경상북도 영덕군 축산면 대곡리 340,129.3517190203953,36.48750491407269,87
경상북도,영덕군,영해초등학교 운동장,경상북도 영덕군 영해면 성내리 386,129.41106024383495,36.53871791352366,1828
경상북도,영덕군,영해중고등학교,경상북도 영덕군 영해면 괴시리 115,129.4130249443457,36.54187198307295,1264
경상북도,영덕군,보건지소 뒤 공터,경상북도 영덕군 영해면 사진리 1220-730,129.4387386375274,36.531353459819485,446
경상북도,영덕군,연평2리 마을회관 앞 공터,경상북도 영덕군 영해면 연평리 120-7,129.40787633256394,36.550393571432124,40
대구광역시,달서구,대진고등학교 운동장,대구광역시 달서구 대곡동 1036,128.51837999503084,35.805405215056254,2010
경기도,연천군,은대근린공원,경기도 연천군 전곡읍 은대리 573,127.063864025242,38.02819562886665,5455
경기도,연천군,은대초등학교 운동장,경기도 연천군 전곡읍 은대리 710-19,127.06038128080554,38.05223878136521,818
충청북도,괴산군,연풍중학교 운동장,충청북도 괴산군 연풍면 행촌리 488,127.99940406403361,36.76641723055821,2394
충청북도,괴산군,칠성초등학교 운동장,충청북도 괴산군 칠성면 도정리 311,127.86236953275566,36.78564008343656,1821
충청북도,괴산군,칠성중학교 운동장,충청북도 괴산군 칠성면 사평리 240,127.87348420835514,36.78862465767487,2091
충청북도,괴산군,문광초등학교 운동장,충청북도 괴산군 문광면 광덕리 294,127.78307013592787,36.79004725277274,988
경상북도,영덕군,칠성1리 영덕무청영농조합법인 앞,경상북도 영덕군 축산면 칠성리 192,129.36497451831423,36.498526147757836,118
충청북도,괴산군,감물초등학교 운동장,충청북도 괴산군 감물면 오성리 81-1,127.87169142964972,36.83902209305557,1358
충청북도,괴산군,감물면사무소 광장,충청북도 괴산군 감물면 광전리 90,127.87490195261246,36.836724037437655,76
충청북도,괴산군,장연면사무소 다목적광장,충청북도 괴산군 장연면 오가리 351-1,127.95518882927178,36.824206625429156,255
충청북도,괴산군,장연초등학교 운동장,충청북도 괴산군 장연면 오가리 349,127.95500148060485,36.82479631931297,1061
충청북도,괴산군,연풍초등학교 운동장,충청북도 괴산군 연풍면 삼풍리 162,127.99696315763593,36.762529141602606,1848
경기도,연천군,전곡중학교 운동장,경기도 연천군 전곡읍 전곡리 400-3,127.07141955250657,38.03344572993521,1727
경기도,연천군,조흥어린이공원(전곡6호),경기도 연천군 전곡읍 전곡리 263-3,127.06975762441226,38.01984525155171,197
경기도,연천군,휴먼시아어린이공원,경기도 연천군 전곡읍 전곡리 704-1,127.07137195992455,38.01789255290594,91
경기도,여주시,상품초등학교 운동장,경기도 여주시 산북면 상품리 12-1,127.44521957946532,37.40475612780345,1355
경기도,연천군,망곡산체육공원,경기도 연천군 연천읍 차탄리 17-1,127.07185647306402,38.10269864686431,121
경기도,연천군,연천어린이공원,경기도 연천군 연천읍 차탄리 624,127.07733524280589,38.10058774324888,576
경기도,여주시,율촌1리 마을회관,경기도 여주시 대신면 율촌리 399-3,127.58446724058622,37.37770623736332,50
경기도,여주시,율촌3리 마을회관,경기도 여주시 대신면 율촌리 309-5,127.5859934312672,37.371035771861536,50
경기도,여주시,경기관광고등학교 운동장,경기도 여주시 대신면 율촌리 271,127.59026548862427,37.37602671121573,1603
경기도,여주시,양촌리 마을회관,경기도 여주시 대신면 양촌리 150-6,127.55944990780459,37.370533930767294,50
경기도,파주시,운정지구 메아리공원,경기도 파주시 동패동 1766,126.73743211719591,37.708307242774865,20319
경기도,파주시,운광초등학교 운동장,경기도 파주시 동패동 1769,126.74119696491829,37.7093282021601,827
경기도,파주시,동패중학교 운동장,경기도 파주시 동패동 1765,126.73574623103231,37.70838237655929,717
경기도,파주시,동패초등학교 운동장,경기도 파주시 동패동 1782-0,126.7344334376882,37.71224378288945,1039
서울특별시,영등포구,문래초등학교 운동장,서울특별시 영등포구 문래동3가 77-7,126.89337234069652,37.51891822892525,1496
경기도,이천시,증포중학교 운동장,경기도 이천시 증포동 476-0,127.4555390,37.2877550,520
경기도,이천시,증포초등학교 운동장,경기도 이천시 증포동 477-0,127.45693623386634,37.29381609599633,1082
서울특별시,영등포구,영등포초등학교 운동장,서울특별시 영등포구 문래동1가 35-2,126.89836525063818,37.51278305838032,2146
서울특별시,영등포구,양화중학교 운동장,서울특별시 영등포구 문래동3가 48-0,126.89634907831179,37.51928926453341,1402
경기도,이천시,이현고등학교 운동장,경기도 이천시 갈산동 589-7,127.45780289118312,37.28486499936373,1006
경기도,이천시,이천고등학교 운동장,경기도 이천시 증포동 402,127.44793766148013,37.28825052140818,2947
경기도,이천시,한내초등학교 운동장,경기도 이천시 증포동 70-5,127.46174775405395,37.29006549960381,942
경기도,이천시,이천중학교 운동장,경기도 이천시 안흥동 148,127.45577821791383,37.27874719049021,3311
경기도,이천시,이천제일고등학교 운동장,경기도 이천시 안흥동 148-1,127.45878707040526,37.27883954121002,2333
경기도,이천시,안흥초등학교 운동장,경기도 이천시 안흥동 344-1,127.45693860220881,37.280147555252,3665
경기도,이천시,이천양정여자고등학교 운동장,경기도 이천시 관고동 77-0,127.4369151987868,37.28432701657456,2741
경기도,이천시,이천남초등학교 운동장,경기도 이천시 중리동 455,127.44383112189317,37.276522696200374,1930
경기도,이천시,이천세무서 앞 광장,경기도 이천시 중리동 371-6,127.43628951250656,37.27157334812192,1028
경기도,이천시,온천공원,경기도 이천시 창전동 산2-1,127.45253925344674,37.28160702776406,3778
경기도,파주시,마지초등학교 운동장,경기도 파주시 적성면 마지리 60-4,126.91954029540919,37.95216397910111,782
경기도,이천시,이천초등학교 운동장,경기도 이천시 창전동 421-21,127.4422683348134,37.283675547935154,2112
경기도,이천시,설봉중학교 운동장,경기도 이천시 창전동 501-2,127.45124176962928,37.28455599432715,1463
경기도,이천시,설봉초등학교 운동장,경기도 이천시 창전동 501-0,127.45236663726938,37.284416395282236,91
경기도,파주시,광탄고등학교 운동장,경기도 파주시 광탄면 신산리 232,126.84878297809388,37.78317185717324,573
경기도,파주시,파평초등학교 운동장,경기도 파주시 파평면 두포리 260,126.83806609502054,37.90346598885187,2880
경기도,파주시,장파초등학교 운동장,경기도 파주시 파평면 장파리 348-1,126.8378331485102,37.94110333041044,2766
경기도,파주시,삼광중학교 운동장,경기도 파주시 적성면 식현리 284,126.88513375677407,37.945151804241135,1667
경기도,파주시,갈현초등학교 운동장,경기도 파주시 탄현면 갈현리 653-1,126.71681700684034,37.7718886117805,464
경기도,파주시,삼성초등학교 운동장,경기도 파주시 탄현면 금승리 491,126.73282951077998,37.82537605223013,839
경기도,파주시,광탄체육공원,경기도 파주시 광탄면 방축리 386-8,126.85044449646884,37.80788046382009,6993
경기도,파주시,한민고등학교 운동장,경기도 파주시 광탄면 용미리 704-10,126.85807041749989,37.75701980021313,1164
경기도,파주시,신산초등학교 운동장,경기도 파주시 광탄면 신산리 199,126.8526365754268,37.78037373969789,5274
경기도,파주시,탄현면 공터 1,경기도 파주시 탄현면 법흥리 1652-239,126.69964764805428,37.78836479367448,2204
경기도,파주시,능안초등학교 운동장,경기도 파주시 조리읍 능안리 53-6,126.79274336342515,37.740239166254675,855
경기도,파주시,파주대원초등학교 운동장,경기도 파주시 조리읍 대원리 203,126.81956641910067,37.727186900989324,608
경기도,파주시,파주광일중학교 운동장,경기도 파주시 월롱면 영태리 535,126.78681543114709,37.77477778618664,1394
경기도,파주시,통일동산(계절화원),경기도 파주시 탄현면 성동리 669-3,126.68795703004871,37.781076377409676,3239
경기도,파주시,통일초등학교 운동장,경기도 파주시 탄현면 법흥리 1719,126.7040338128284,37.7746827830718,808
경기도,파주시,웅담초등학교 운동장,경기도 파주시 법원읍 웅담리 387-1,126.89567098638537,37.91395709863721,1194
경기도,파주시,새얼학교 운동장,경기도 파주시 법원읍 금곡리 428-1,126.87552431604644,37.88340009405225,1434
경기도,파주시,봉일천중학교 운동장,경기도 파주시 조리읍 봉일천리 257,126.81331525480562,37.74794960802216,2903
경기도,파주시,봉일천초등학교 운동장,경기도 파주시 조리읍 봉일천리 191-6,126.80706356057448,37.74481335389706,1994
서울특별시,동작구,영등포고등학교 운동장,서울특별시 동작구 대방동 13-2,126.93383427187928,37.507988916849975,1588
서울특별시,동작구,서울공업고등학교 운동장,서울특별시 동작구 대방동 390-5,126.92214948240515,37.50087747763504,3885
서울특별시,동작구,영등포중학교 운동장,서울특별시 동작구 대방동 13-2,126.93286097282864,37.50812488139663,1018
서울특별시,동작구,대방공원,서울특별시 동작구 대방동 23-176,126.92718598507878,37.507172672350436,3229
경기도,파주시,법원체육공원,경기도 파주시 법원읍 대능리 448-5,126.85466004344391,37.839097316871026,1420
서울특별시,동작구,사당중학교 운동장,서울특별시 동작구 사당동 209-16,126.9687885886981,37.48740585153993,862
서울특별시,동작구,상도중학교 운동장,서울특별시 동작구 사당동 181-20,126.96182844014378,37.490275739810016,1439
서울특별시,동작구,대림초등학교운동장,서울특별시 동작구 대방동 391-62,126.92616770099107,37.50056876666399,539
서울특별시,동작구,경문고등학교운동장,서울특별시 동작구 동작동 산4-2,126.98161416463124,37.491750275867254,3183
서울특별시,동작구,동작중학교운동장,서울특별시 동작구 동작동 59-1,126.97699955917625,37.49490962662041,1267
서울특별시,동작구,남사초등학교 운동장,서울특별시 동작구 사당동 1011-1,126.97886684209718,37.48224204480817,1295
서울특별시,동작구,신남성초등학교 운동장,서울특별시 동작구 사당동 199-1,126.96527689475035,37.488503465196196,1228
서울특별시,동작구,남성초등학교 운동장,서울특별시 동작구 사당동 324-18,126.97630269389495,37.4842437840413,1050
서울특별시,동작구,흑석초등학교 운동장,서울특별시 동작구 흑석동 7-1,126.96509326867212,37.50865820892057,739
서울특별시,동작구,은로초등학교 운동장,서울특별시 동작구 흑석동 245-1,126.96017707317614,37.503731600076,1107
서울특별시,동작구,동양중학교 운동장,서울특별시 동작구 흑석동 198-79,126.95627618146064,37.50966776665812,288
서울특별시,동작구,장승중학교 운동장,서울특별시 동작구 상도동 175-1,126.94075424189428,37.50349838971939,682
서울특별시,동작구,상도초등학교 운동장,서울특별시 동작구 상도동 238-2,126.93739811305777,37.49949201783027,440
서울특별시,동작구,신상도초등학교 운동장,서울특별시 동작구 상도동 산65-59,126.9437847750389,37.49992598925956,786
서울특별시,동작구,강현중학교운동장,서울특별시 동작구 상도동 335-5,126.93142498200356,37.50310038472509,974
서울특별시,동작구,숭실대학교 운동장,서울특별시 동작구 상도동 511-0,126.9560464562546,37.4972739778768,2395
서울특별시,동작구,남성중학교 운동장,서울특별시 동작구 사당동 304-45,126.97236910136722,37.478722686575836,742
서울특별시,동작구,동작고등학교 운동장,서울특별시 동작구 사당동 236-5,126.96553026835969,37.48208349439603,984
서울특별시,동작구,동작초등학교 운동장,서울특별시 동작구 사당동 산9-1,126.97688133828423,37.49405006492246,837
서울특별시,동작구,삼일초등학교 운동장,서울특별시 동작구 사당동 105-23,126.97478807897895,37.487985887400015,492
서울특별시,동작구,중앙대학교사범대학부속중학교 운동장,서울특별시 동작구 흑석동 86-0,126.96139598352708,37.504817205873664,1090
서울특별시,동작구,강남초등학교 운동장,서울특별시 동작구 상도1동 501-1,126.95270191198496,37.50590795101114,1242
서울특별시,동작구,본동초등학교 운동장,서울특별시 동작구 본동 50-8,126.95374415240204,37.51028213009333,424
서울특별시,동작구,영본초등학교 운동장,서울특별시 동작구 본동 441-11,126.94890427335586,37.510687938849074,813
서울특별시,동작구,노들나루공원,서울특별시 동작구 본동 258-1,126.95482076247205,37.51357775533881,13509
서울특별시,관악구,신림고등학교 운동장,서울특별시 관악구 신림동 1566-42,126.9172390688781,37.478362654263876,1310
서울특별시,관악구,난우중학교 운동장,서울특별시 관악구 신림동 652-156,126.92253364258961,37.46668580785367,839
서울특별시,관악구,신림초등학교 운동장,서울특별시 관악구 신림동 418-20,126.92750149139495,37.477611226534144,452
서울특별시,관악구,난우초등학교 운동장,서울특별시 관악구 신림동 589-1,126.91775266252418,37.476824851967315,735
서울특별시,관악구,난향초등학교 운동장,서울특별시 관악구 신림동 672,126.91828927625313,37.46220706302276,441
서울특별시,동작구,노량진초등학교 운동장,서울특별시 동작구 노량진동 49-12,126.9406211653219,37.51129539063438,818
서울특별시,동작구,노량진근린공원(송학대공원),서울특별시 동작구 노량진동 325-2,126.94380040345527,37.508637405586754,3356
서울특별시,동작구,국사봉중학교운동장,서울특별시 동작구 상도동 214-437,126.94507085104755,37.49377688759384,928
서울특별시,동작구,상현중학교 운동장,서울특별시 동작구 상도동 111-52,126.96111581578698,37.493863857016144,717
서울특별시,영등포구,동심어린이공원,서울특별시 영등포구 대림동 742-0,126.89733419426504,37.49836151588619,723
서울특별시,영등포구,두암어린이공원,서울특별시 영등포구 대림동 715-0,126.89737114763201,37.4955005094212,443
서울특별시,영등포구,대림3동 유수지,서울특별시 영등포구 대림동 611-0,126.89506840705559,37.50419670985217,2576
서울특별시,관악구,남부초등학교 운동장,서울특별시 관악구 신림동 467,126.92206794169059,37.48482633251047,3609
서울특별시,관악구,봉림어린이공원,서울특별시 관악구 신림동 1510-2,126.93559134918962,37.48274858123807,268
서울특별시,관악구,신화어린이공원,서울특별시 관악구 신림동 408-10,126.93574936384125,37.476734437727586,215
서울특별시,관악구,삼성중학교 운동장,서울특별시 관악구 신림동 220-1,126.94307421901023,37.46812385981848,981
서울특별시,관악구,신림근린공원,서울특별시 관악구 신림동 1707-0,126.91762159174978,37.481499500918574,6001
서울특별시,관악구,신림중학교 운동장,서울특별시 관악구 신림동 134-5,126.94500017431507,37.47025539197043,1316
서울특별시,관악구,신우초등학교 운동장,서울특별시 관악구 신림동 315,126.9324250173475,37.462738629732954,1141
서울특별시,관악구,쑥고개어린이공원,서울특별시 관악구 신림동 1564-68,126.9408107718354,37.475861738996464,258
서울특별시,관악구,광신고등학교 운동장,서울특별시 관악구 신림동 328-0,126.92567469764246,37.46519419356727,2081
서울특별시,관악구,남서울중학교 운동장,서울특별시 관악구 신림동 452-12,126.92134047795103,37.48161696568792,1669
전라북도,김제시,김제서고등학교,전라북도 김제시 죽산면 죽산리 600-25,126.81464474917132,35.77143037943467,4691
전라북도,김제시,종정초등학교,전라북도 김제시 백산면 상정리 815-2,126.9054362502728,35.85215719231717,1747
전라북도,김제시,김제용지초등학교,전라북도 김제시 용지면 구암리 135-0,126.95789391543768,35.85405801766325,1442
전라북도,남원시,보건소 주차장,전라북도 남원시 조산동 455-0,127.36397180620988,35.39727814317123,1758
전라북도,남원시,성원고등학교운동장,전라북도 남원시 왕정동 267,127.37033634164551,35.41399392592492,1208
전라북도,김제시,김제월촌초등학교,전라북도 김제시 입석동 469,126.8681592447861,35.78886931310506,1352
전라북도,김제시,만경고등학교,전라북도 김제시 만경읍 만경리 527-0,126.81781971705819,35.849812104178646,2429
전라북도,김제시,만경초등학교,전라북도 김제시 만경읍 만경리 165-0,126.823113488803,35.85501849002281,270
전라북도,김제시,만경여자고등학교,전라북도 김제시 만경읍 만경리 404-2,126.81460501357185,35.85394155338863,1909
전라북도,김제시,김제죽산초등학교,전라북도 김제시 죽산면 죽산리 498-1,126.81591108240926,35.7730281373036,1375
전라북도,김제시,한국폴리텍대학 김제캠퍼스,전라북도 김제시 백학동 84-0,126.94035419968354,35.810186142344634,1364
전라북도,김제시,덕암정보고등학교,전라북도 김제시 서암동 5-0,126.88681629845776,35.8132608257477,1405
전라북도,김제시,덕암고등학교,전라북도 김제시 서암동 5-0,126.88508229254708,35.813567172210675,2582
전라북도,김제시,김제중앙중학교,전라북도 김제시 옥산동 59-0,126.88774002016292,35.794505542429306,2710
전라북도,김제시,백석초등학교,전라북도 김제시 흥사동 543-1,126.89414824460573,35.829001447276156,1394
전라북도,김제시,월성초등학교,전라북도 김제시 월성동 139-7,126.91024672265205,35.76019537049001,1953
서울특별시,관악구,미도어린이공원,서울특별시 관악구 신림동 675-200,126.91524214387222,37.462838416613835,197
서울특별시,관악구,호박골어린이공원,서울특별시 관악구 신림동 1580-22,126.9239266595039,37.48198815575639,291
전라북도,김제시,김제중학교,전라북도 김제시 신풍동 215-1,126.89956588450993,35.7938697262575,2028
전라북도,김제시,김제고등학교,전라북도 김제시 신풍동 345-1,126.89535880196308,35.791289993534676,2079
전라북도,김제시,금성중학교,전라북도 김제시 신풍동 144-1,126.89868746782193,35.79764052504844,1453
전라북도,김제시,김제시민운동장,전라북도 김제시 검산동 산62-1,126.90115505185666,35.81465792310927,9253
전라북도,김제시,김제검산초등학교,전라북도 김제시 검산동 912-21,126.89945938078084,35.80559482642693,1082
전라북도,김제시,김제북초등학교,전라북도 김제시 순동 195-8,126.93423802551986,35.814940996440036,1070
서울특별시,관악구,서원어린이공원,서울특별시 관악구 신림동 409-26,126.93342147238828,37.476715939712,438
서울특별시,관악구,남강고등학교 운동장,서울특별시 관악구 신림동 627-5,126.92450104599729,37.472548541358236,1781
전라북도,김제시,김제중앙초등학교,전라북도 김제시 요촌동 214-1,126.88957787559852,35.80193145325687,2071
전라북도,김제시,한들중학교,전라북도 김제시 요촌동 72-1,126.89164374434361,35.804174240054635,2667
전라북도,김제시,김제초등학교,전라북도 김제시 요촌동 261-1,126.88684095429446,35.802027463982135,1515
전라북도,김제시,김제여자고등학교,전라북도 김제시 신풍동 106-2,126.89579724464284,35.80047269541119,1569
전라북도,김제시,김제동초등학교,전라북도 김제시 신풍동 48-3,126.90135199106696,35.79533589217375,983
전라북도,김제시,김제농생명마이스터고등학교,전라북도 김제시 신풍동 436-1,126.89087559604742,35.79511994497317,2104
서울특별시,관악구,남강중학교 운동장,서울특별시 관악구 신림동 1679-0,126.92379765632575,37.47144379895062,1628
서울특별시,관악구,새들어린이공원,서울특별시 관악구 신림동 1441-42,126.92576398684798,37.48862725908306,245
서울특별시,관악구,삼성고등학교 운동장,서울특별시 관악구 신림동 811-4,126.94355645188912,37.469871863480215,1474
전라북도,남원시,아영초등학교 운동장,전라북도 남원시 아영면 청계리 42-3,127.6098842886724,35.505383905862615,1275
전라북도,남원시,산내초등학교운동장,전라북도 남원시 산내면 대정리 646-1,127.62726457677277,35.41967533608335,563
전라북도,남원시,산내중학교 운동장,전라북도 남원시 산내면 대정리 601-0,127.62735881524253,35.422541129842294,993
전라북도,남원시,인월중고등학교운동장,전라북도 남원시 인월면 서무리 678-2,127.60217417518483,35.46446018670185,1256
전라북도,남원시,인월초등학교 운동장,전라북도 남원시 인월면 서무리 688-14,127.60153828459639,35.46338861202165,863
전라북도,남원시,산동초등학교운동장,전라북도 남원시 산동면 태평리 138,127.47735220734764,35.49251157654142,763
전라북도,남원시,오동초등학교 운동장,전라북도 남원시 이백면 척문리 420-1,127.424058,35.426892,607
전라북도,남원시,한울학교 운동장,전라북도 남원시 이백면 서곡리 430-1,127.44149439443808,35.42480146752276,322
전라북도,남원시,이백초등학교운동장,전라북도 남원시 이백면 평촌리 104,127.46075758602127,35.429561925950686,723
전라북도,남원시,아영중학교운동장,전라북도 남원시 아영면 청계리 103,127.60949355865777,35.506434666794405,1026
전라북도,완주군,삼례초등학교 운동장,전라북도 완주군 삼례읍 후정리 37-2,127.06914274615879,35.90965274096252,4670
전라북도,완주군,우석대학교 운동장,전라북도 완주군 삼례읍 후정리 490-0,127.0647598357207,35.91135856464387,5230
전라북도,남원시,덕과초등학교운동장,전라북도 남원시 덕과면 고정리 505-2,127.35369535771619,35.51369964031494,621
전라북도,남원시,보절초등학교운동장,전라북도 남원시 보절면 신파리 856-1,127.4007001601226,35.51087895488856,1172
전라북도,남원시,보절중학교 운동장,전라북도 남원시 보절면 신파리 923-1,127.40054918492325,35.5110091859021,451
서울특별시,관악구,정문학교 운동장,서울특별시 관악구 신림동 673-82,126.91613830172028,37.461484406735174,515
서울특별시,관악구,새빛어린이공원,서울특별시 관악구 신림동 501-30,126.91518426106512,37.48615520950437,97
서울특별시,관악구,문성어린이공원,서울특별시 관악구 신림동 1661-15,126.90305131503776,37.481868736311995,289
서울특별시,관악구,장군봉근린공원,서울특별시 관악구 신림동 산170-133,126.93656652205385,37.480024344013415,1410
서울특별시,관악구,백설어린이공원,서울특별시 관악구 봉천동 1606-11,126.95363034633714,37.47601290462898,342
서울특별시,관악구,일선어린이공원,서울특별시 관악구 봉천동 1587-7,126.94945468326743,37.477976112713534,312
서울특별시,관악구,비안어린이공원,서울특별시 관악구 봉천동 1530-14,126.94019238637209,37.48087663389702,343
서울특별시,관악구,교체어린이공원,서울특별시 관악구 봉천동 196-193,126.96402852543815,37.473337831459105,246
서울특별시,관악구,신성초등학교 운동장,서울특별시 관악구 신림동 117-4,126.9368516144909,37.47147985756566,1119
서울특별시,관악구,문영여자중학교 운동장,서울특별시 관악구 봉천동 1695-0,126.95144034822887,37.47272547771601,872
서울특별시,관악구,청룡초등학교 운동장,서울특별시 관악구 봉천동 738-237,126.9513624686999,37.47630191219158,1181
서울특별시,관악구,낙성대공원,서울특별시 관악구 봉천동 227-0,126.9590174519586,37.47134508256109,1786
경기도,여주시,후포1리 마을회관,경기도 여주시 대신면 후포리 710-4,127.60499882479382,37.355426518236015,50
경기도,여주시,가산1리 마을회관,경기도 여주시 대신면 가산리 431-17,127.61522129704571,37.3426997605827,50
경기도,여주시,상백1리 마을회관,경기도 여주시 흥천면 상백리 208-8,127.5568324606432,37.35860459089834,50
경기도,여주시,흥천초등학교 운동장,경기도 여주시 흥천면 효지리 377-3,127.54109016900568,37.33240617007848,1818
경기도,여주시,이포초등학교 운동장,경기도 여주시 금사면 이포리 311-2,127.53019885163869,37.388638163332544,2009
전라남도,나주시,나주실내체육관 주차장,전라남도 나주시 송월동 1107-1,126.7124352684833,35.01235445381037,1000
전라남도,나주시,영강초등학교 운동장,전라남도 나주시 삼영동 96,126.7123146328518,35.00639873087576,2288
전라남도,나주시,나주시민회관 주차장,전라남도 나주시 남내동 27-1,126.72336843370279,35.032068082341944,491
전라남도,나주시,나주중앙초등학교 운동장,전라남도 나주시 성북동 13,126.71940788386384,35.03834096398703,2329
전라남도,나주시,나주초등학교 운동장,전라남도 나주시 남외동 128,126.71904799769062,35.027093840405946,1673
전라남도,영암군,시종초등학교 운동장,전라남도 영암군 시종면 내동리 10-2,126.60748520490593,34.86701567318302,758
전라남도,영암군,도포초등학교 운동장,전라남도 영암군 도포면 덕화리 100-2,126.63577608230504,34.83613475866141,1212
전라남도,영암군,도포중학교 운동장,전라남도 영암군 도포면 구학리 370-3,126.64280292908285,34.849206673125806,1515
전라남도,영암군,구림공업고등학교 운동장,전라남도 영암군 군서면 동구림리 414-1,126.62698229932,34.75960910534644,2273
전라남도,영암군,구림초등학교 운동장,전라남도 영암군 군서면 동구림리 93-1,126.63233295359491,34.76332132293246,1515
전라남도,나주시,스포츠파크체육관 운동장,전라남도 나주시 송월동 1078-2,126.71914236964673,35.0108109689127,12121
강원도,춘천시,신동초등학교 운동장,강원도 춘천시 신동 894-1,127.72256478797912,37.93003069795727,939
강원도,춘천시,천전초등학교 운동장,강원도 춘천시 신북읍 율문리 295,127.74556326098146,37.92714849122877,1394
강원도,춘천시,춘성중학교 운동장,강원도 춘천시 신북읍 율문리 306,127.74915759233322,37.92695594513005,1273
경상남도,함양군,어린이공원(백연유원지),경상남도 함양군 함양읍 죽곡리 6,127.71728423810319,35.52299748436778,258
전라남도,영암군,삼호서초등학교 운동장,전라남도 영암군 삼호읍 용당리 2178-1,126.37851926342445,34.7456494461196,606
전라남도,영암군,덕진초등학교 운동장,전라남도 영암군 덕진면 덕진리 310-2,126.69878050784595,34.82129752138694,924
전라남도,영암군,금정초등학교 운동장,전라남도 영암군 금정면 용흥리 1052,126.7534681854848,34.86100184325687,1061
전라남도,영암군,신북중학교 운동장,전라남도 영암군 신북면 월평리 25,126.69754528273911,34.89060607063518,364
전라남도,영암군,신북초등학교 운동장,전라남도 영암군 신북면 월평리 13,126.69640700838102,34.891099098814465,1212
전라남도,영암군,시종중학교 운동장,전라남도 영암군 시종면 내동리 36,126.6084893799399,34.864850794718336,1273
강원도,춘천시,봄내초등학교 운동장,강원도 춘천시 석사동 815,127.74204931187238,37.856057259263146,630
강원도,춘천시,성림초등학교 운동장,강원도 춘천시 석사동 868,127.74016305744682,37.852108976826635,558
강원도,춘천시,우석중학교 운동장,강원도 춘천시 석사동 326-1,127.74956743246926,37.85771324645412,970
강원도,춘천시,석사초등학교,강원도 춘천시 석사동 326-1,127.74941287923593,37.857530498952094,645
강원도,춘천시,신남초등학교 운동장,강원도 춘천시 칠전동 149,127.71201132277331,37.84262583500486,891
전라남도,해남군,화원초등학교운동장,전라남도 해남군 화원면 청용리 235-1,126.332792253054,34.6721247076635,364
전라남도,해남군,화원고등학교운동장,전라남도 해남군 화원면 신덕리 45-0,126.3243205292555,34.66987873916628,1667
전라남도,영암군,영암초등학교 운동장,전라남도 영암군 영암읍 회문리 186,126.68750126860364,34.79660784906088,1273
전라남도,영암군,영암여자고등학교 운동장,전라남도 영암군 영암읍 동무리 4-0,126.70283746014009,34.80302970750328,1212
전라남도,영암군,삼호중앙초등학교 운동장,전라남도 영암군 삼호읍 용앙리 280,126.47023298606472,34.74684309532871,606
전라남도,영암군,삼호중학교 운동장,전라남도 영암군 삼호읍 용앙리 262,126.46823179189961,34.74953469973104,1273
경상북도,포항시,양학중학교 운동장,경상북도 포항시 북구 득량동 205-6,129.34241854958464,36.0329916851765,1030
경상북도,포항시,양학생활체육운동장,경상북도 포항시 북구 득량동 219-0,129.34083095772428,36.03615389204863,1970
경상북도,포항시,양학초등학교 운동장,경상북도 포항시 북구 학잠동 191,129.34458389431293,36.031966759610164,1515
전라남도,해남군,산이서초등학교운동장,전라남도 해남군 산이면 상공리 231-4,126.41109773123604,34.67712719184351,1594
전라남도,해남군,우수영중학교운동장,전라남도 해남군 문내면 동외리 880-1,126.31228846993672,34.594663761695465,1576
전라남도,해남군,우수영초등학교운동장,전라남도 해남군 문내면 난대리 437-1,126.312215106244,34.6045497692559,1973
강원도,춘천시,남춘천여자중학교,강원도 춘천시 온의동 321-0,127.720624655949,37.85941549624017,1335
강원도,춘천시,교동초등학교,강원도 춘천시 교동 113-4,127.73717055666516,37.88054587431827,1323
강원도,춘천시,성원초등학교 운동장,강원도 춘천시 퇴계동 1035,127.74434026454763,37.848340504335965,873
강원도,춘천시,남부초등학교 운동장,강원도 춘천시 퇴계동 915,127.72647241666616,37.85849575231452,639
강원도,춘천시,우석초등학교 운동장,강원도 춘천시 석사동 754,127.74982174658544,37.864222574767,755
경상북도,포항시,선린요양병원 주차장,경상북도 포항시 북구 대신동 74-1,129.3673087666972,36.04656938504428,1061
경상북도,포항시,(구)포항중앙초등학교 운동장,경상북도 포항시 북구 동빈1가 90-0,129.36851464321336,36.043651622506395,1606
경상북도,포항시,포항고등학교 운동장,경상북도 포항시 북구 학산동 288,129.37140578912022,36.05637170921804,3636
경상북도,포항시,포항항도초등학교 운동장,경상북도 포항시 북구 학산동 174-1,129.36938413916786,36.05164411892086,1212
경상북도,포항시,포항여자고등학교 운동장,경상북도 포항시 북구 학산동 243,129.36487373612377,36.05023060227799,1515
경상북도,포항시,포항중학교 운동장,경상북도 포항시 북구 학산동 203-1,129.3668470806393,36.04968151023308,2273
전라남도,광양시,옥곡초등학교 운동장,전라남도 광양시 옥곡면 원월리 9,127.69549234073637,34.990917244169765,689
전라남도,광양시,옥곡중학교 운동장,전라남도 광양시 옥곡면 묵백리 74-1,127.7012842707833,34.99479219888229,2676
전라남도,광양시,항만물류고등학교 운동장,전라남도 광양시 진상면 섬거리 557-38,127.71751370847724,35.01749122641479,2615
전라남도,광양시,진상초등학교 운동장,전라남도 광양시 진상면 섬거리 553-1,127.71598014907576,35.019862589567865,1499
경상북도,포항시,포항초등학교 운동장,경상북도 포항시 북구 덕산동 902-1,129.36360503105902,36.042646508357244,909
전라남도,광양시,세풍초등학교 운동장,전라남도 광양시 광양읍 세풍리 210-0,127.58977300529045,34.94742003017959,1133
전라남도,광양시,덕례초등학교 운동장,전라남도 광양시 광양읍 덕례리 448,127.5706296249622,34.968621053147324,818
전라남도,광양시,봉강초등학교 운동장,전라남도 광양시 봉강면 봉당리 468-2,127.5814282981642,35.01215027510938,1423
전라남도,광양시,옥룡초등학교 운동장,전라남도 광양시 옥룡면 운평리 624-4,127.61825529487591,35.01547765636387,1227
전라남도,광양시,옥룡북초등학교 운동장,전라남도 광양시 옥룡면 죽천리 677,127.61670535063544,35.04134924222232,634
강원도,춘천시,호반초등학교 운동장,강원도 춘천시 후평동 15,127.76067734673285,37.874566271705774,761
강원도,춘천시,남춘천초등학교 운동장,강원도 춘천시 온의동 550,127.72214187073008,37.860821392708786,1209
전라남도,광양시,광영초등학교 운동장,전라남도 광양시 광영동 75,127.72025542686063,34.963354387209286,1206
전라남도,광양시,태인동사무소 주차장,전라남도 광양시 태인동 398,127.74952689120217,34.94325400031258,1261
전라남도,광양시,어울림체육관 주차장,전라남도 광양시 금호동 817,127.72203191933781,34.940203512356845,4152
전라남도,광양시,철조각공원,전라남도 광양시 금호동 716,127.73192730342487,34.94028627756372,5642
전라남도,광양시,칠성초등학교 운동장,전라남도 광양시 광양읍 칠성리 1006,127.57884480817397,34.9790185448964,818
전라남도,광양시,마로초등학교 운동장,전라남도 광양시 광양읍 용강리 342,127.61225102270684,34.967727137577235,1038
강원도,춘천시,소양초등학교 운동장,강원도 춘천시 우두동 282-1,127.73962197364786,37.90442876718128,914
강원도,춘천시,소양중학교 운동장,강원도 춘천시 사농동 82,127.72584436687808,37.90598455755448,2948
강원도,춘천시,후평초등학교 운동장,강원도 춘천시 후평동 511-36,127.74439328137721,37.882628959399426,1106
강원도,춘천시,근화초등학교 운동장,강원도 춘천시 근화동 802-14,127.72303029696599,37.8891250784691,888
강원도,원주시,동화초등학교 운동장,강원도 원주시 문막읍 동화리 1534-2,127.82918735692033,37.327725133104444,881
강원도,원주시,문막초등학교 운동장,강원도 원주시 문막읍 건등리 1704-0,127.82099724883717,37.312343550645565,1697
강원도,원주시,소초초등학교 운동장,강원도 원주시 소초면 평장리 792,128.0036921436395,37.41774039414995,1924
강원도,원주시,호저초등학교 운동장,강원도 원주시 호저면 주산리 511-0,127.92622932614283,37.411320875642105,846
강원도,원주시,만종초등학교 운동장,강원도 원주시 호저면 만종리 610-0,127.9015781034055,37.35544221260189,1061
강원도,원주시,버들중학교 운동장,강원도 원주시 반곡동 1963-5,127.98986940217317,37.331152863924345,934
강원도,원주시,봉대초등학교 운동장,강원도 원주시 반곡동 896-0,127.98801601459127,37.33367146534377,895
강원도,원주시,원주여자고등학교 운동장,강원도 원주시 반곡동 1816-1,127.9772634440754,37.33673753164372,1670
강원도,원주시,반곡초등학교 운동장,강원도 원주시 반곡동 1450-1,127.97354661157105,37.33746639166938,621
강원도,원주시,문막중고등학교 운동장,강원도 원주시 문막읍 문막리 237-0,127.81529500792637,37.3051810744318,1463
강원도,원주시,치악고등학교 운동장,강원도 원주시 관설동 1798-1,127.95871933732221,37.315342265490486,1317
강원도,원주시,반곡중학교 운동장,강원도 원주시 반곡동 1450-12,127.97333585119364,37.335972031814386,982
강원도,화천군,산양초등학교 운동장,강원도 화천군 상서면 산양리 707-0,127.66233502745175,38.21274103505789,1121
강원도,화천군,화천 생활체육공원,강원도 화천군 하남면 위라리 514,127.701162417413,38.09600686148898,30742
강원도,화천군,상승초등학교 운동장,강원도 화천군 상서면 파포리 291,127.64977832394622,38.15738203105772,1187
충청북도,청주시,금천배수지 체육공원(팔각정공원),충청북도 청주시 상당구 금천동 329-0,127.51310617409919,36.624818557500696,1718
충청북도,청주시,금천초등학교 운동장,충청북도 청주시 상당구 금천동 213-1,127.50555191306059,36.62682548959878,1643
충청북도,청주시,용담초등학교 운동장,충청북도 청주시 상당구 용담동 186,127.50143415147494,36.63575500223957,3333
충청북도,청주시,주성고등학교 운동장,충청북도 청주시 상당구 용담동 437,127.51052521843448,36.634652583149055,1148
전라남도,광양시,골약초등학교 운동장,전라남도 광양시 황길동 827,127.6604808656238,34.91014730669014,1380
전라남도,광양시,성황초등학교 운동장,전라남도 광양시 성황동 342,127.68267832673284,34.94024594573033,1192
전라남도,광양시,중동근린공원,전라남도 광양시 중동 1673,127.69290952847882,34.934176333425064,16285
전라남도,광양시,환경사업소 운동장,전라남도 광양시 중동 308-124,127.69074062861324,34.92917730508358,15842
전라남도,광양시,마동근린체육공원,전라남도 광양시 마동 1062,127.69278351668723,34.95354111272905,15873
전라남도,광양시,가야초등학교 운동장,전라남도 광양시 광영동 250,127.71314207038036,34.96683358737286,876
전라남도,나주시,문평초등학교 운동장,전라남도 나주시 문평면 동원리 719,126.60434552535348,35.058415373424666,1222
전라남도,나주시,노안중학교 운동장,전라남도 나주시 노안면 금동리 59-8,126.73431222247683,35.0728955867627,2182
전라남도,나주시,금천초등학교 운동장,전라남도 나주시 금천면 오강리 207,126.75512842111071,35.0337912962498,9459
전라남도,나주시,산포초등학교 운동장,전라남도 나주시 산포면 매성리 199,126.80563943980273,35.034278306648005,4621
전라남도,나주시,다도초등학교 운동장,전라남도 나주시 다도면 궁원리 316,126.82676646377509,34.95795794697587,2197
전라남도,나주시,봉황초등학교 운동장,전라남도 나주시 봉황면 죽석리 771,126.78864212809593,34.95719838112732,2051
충청남도,태안군,대기초 운동장,충청남도 태안군 원북면 대기리 15-1,126.25708056200462,36.80003358701203,1030
충청남도,태안군,원북초 방갈분교,충청남도 태안군 원북면 방갈리 202-0,126.21233250221775,36.873541015929696,1089
경상북도,포항시,포항장흥초등학교 운동장,경상북도 포항시 북구 장성동 1429-1,129.39300079695084,36.07835716953214,1273
경상북도,포항시,장성초등학교 운동장,경상북도 포항시 북구 장성동 1344,129.3718484324176,36.06978983286234,1515
경상북도,포항시,장량초등학교 운동장,경상북도 포항시 북구 장성동 441-3,129.3803582398613,36.0714609350086,1273
경상북도,포항시,장성4어린이공원,경상북도 포항시 북구 장성동 1410-12,129.39418408473566,36.083233508309156,485
경상북도,포항시,장성6어린이공원,경상북도 포항시 북구 장성동 1460-1,129.38709106644092,36.07664474322997,576
경상북도,포항시,장성15어린이공원,경상북도 포항시 북구 장성동 1566-8,129.38430711063086,36.0763242699383,485
경상북도,포항시,두호5어린이공원,경상북도 포항시 북구 두호동 1080-1,129.38173472193952,36.06738184957003,758
경상북도,포항시,두호동산,경상북도 포항시 북구 두호동 산30-1,129.38343403788502,36.07012450772618,545
경상북도,포항시,물의공원,경상북도 포항시 북구 두호동 105-1,129.38854060635654,36.0652558607962,1212
경상북도,포항시,창포6공원,경상북도 포항시 북구 두호동 1097-1,129.3724887176342,36.06735661578134,788
경상북도,포항시,두호1어린이공원,경상북도 포항시 북구 두호동 1084-2,129.38123441890417,36.06453057716729,485
경상북도,포항시,두호고등학교 운동장,경상북도 포항시 북구 두호동 1106-0,129.37325068331606,36.06223143717822,1212
경상북도,포항시,장원초등학교 운동장,경상북도 포항시 북구 장성동 1536-1,129.38489231813264,36.081387531733036,1273
경상북도,포항시,유성여자고등학교 운동장,경상북도 포항시 북구 우현동 205-2,129.36040208582287,36.057321028002924,1061
경상북도,포항시,창포중학교 운동장,경상북도 포항시 북구 창포동 647-0,129.36877984878888,36.06556931562906,1242
경상북도,포항시,두호초등학교 운동장,경상북도 포항시 북구 창포동 614-0,129.36866672659065,36.06432368609257,1515
경상북도,포항시,창포초등학교 운동장,경상북도 포항시 북구 창포동 646-0,129.3687611438872,36.06665225598889,848
경상북도,포항시,포항동부초등학교 운동장,경상북도 포항시 북구 두호동 336-0,129.38030298534827,36.06263353570004,1576
경상북도,포항시,두호남부초등학교 운동장,경상북도 포항시 북구 두호동 919-9,129.37382781522675,36.06155418098957,970
전라북도,전주시,전주효문여자중학교(운동장),전라북도 전주시 완산구 삼천동1가 208-1,127.12051430049775,35.7976836379815,1545
전라북도,전주시,전주용와초등학교(운동장),전라북도 전주시 완산구 삼천동1가 305-43,127.11505737525324,35.79118261552704,1182
전라북도,전주시,전주해성중학교(운동장),전라북도 전주시 완산구 삼천동2가 555-0,127.10264080593583,35.78783738135423,4139
충청남도,태안군,안면중 운동장,충청남도 태안군 안면읍 승언리 60-1,126.35430024123244,36.50880246775508,1612
경상북도,포항시,경북과학고등학교 운동장,경상북도 포항시 북구 용흥동 418-1,129.35262408761596,36.04709089552274,909
경상북도,포항시,동북지방통계청,경상북도 포항시 북구 용흥동 101-4,129.35645417995832,36.03466030818611,606
경상북도,포항시,포항여자중학교 운동장,경상북도 포항시 북구 우현동 56,129.36310880376706,36.05345664677412,2273
경상북도,포항시,세화고등학교 운동장,경상북도 포항시 북구 우현동 318-3,129.3523837545112,36.05391427997876,1061
경상북도,포항시,대동중고등학교 운동장,경상북도 포항시 북구 우현동 201-6,129.35677927543887,36.05823890857673,2909
경상북도,포항시,중앙초등학교 운동장,경상북도 포항시 북구 우현동 산13-6,129.3650861917873,36.05913368182608,909
전라북도,전주시,용흥중학교(운동장),전라북도 전주시 완산구 삼천동1가 305-35,127.11377101576956,35.791280544022385,1670
전라북도,전주시,전주서신초등학교(운동장),전라북도 전주시 완산구 서신동 31-1,127.1249916701594,35.82953275628634,984
전라북도,전주시,전주서중학교(운동장),전라북도 전주시 완산구 서신동 762-0,127.10957675948403,35.831887855125096,1576
전라북도,전주시,전주서일초등학교(운동장),전라북도 전주시 완산구 서신동 960-4,127.11508227006232,35.836328078571796,1276
전라북도,전주시,한일고등학교(운동장),전라북도 전주시 완산구 서신동 71-2,127.12377617482204,35.831696549760075,3206
경상북도,포항시,포항대흥초등학교 운동장,경상북도 포항시 북구 용흥동 418-8,129.35211515521402,36.04556126295846,2121
경상북도,포항시,동지여자고등학교 운동장,경상북도 포항시 북구 용흥동 511-0,129.3463840569721,36.037993475261224,1697
경상북도,포항시,대흥중학교 운동장,경상북도 포항시 북구 용흥동 418-9,129.3538214568403,36.04490788110151,1515
경상북도,포항시,용흥중학교 운동장,경상북도 포항시 북구 용흥동 340-0,129.3508590570537,36.037195421363634,1121
경상북도,포항시,포항남부초등학교 운동장,경상북도 포항시 북구 용흥동 615-6,129.35606393757928,36.02812671701441,1667
경상북도,포항시,포항여자전자고등학교 운동장,경상북도 포항시 북구 용흥동 430-0,129.34897013895568,36.050094323307,2333
전라북도,전주시,전주한들초등학교(운동장),전라북도 전주시 완산구 중화산동2가 752-4,127.1172648310166,35.82137687507759,655
전라북도,전주시,전주상업정보고등학교(운동장),전라북도 전주시 완산구 중화산동2가 546,127.12542643484181,35.80998959356401,841
전라북도,전주시,전주중산초등학교(운동장),전라북도 전주시 완산구 중화산동2가 614-0,127.1197796435329,35.8173244830437,1018
전라북도,전주시,전주화산초등학교(운동장),전라북도 전주시 완산구 중화산동2가 46-25,127.1294421891949,35.809806444364455,1227
전라북도,전주시,전주근영여자고등학교(운동장),전라북도 전주시 완산구 중화산동2가 254-4,127.1245934161251,35.81986859247037,2152
전라북도,전주시,전주동암차돌학교(운동장),전라북도 전주시 완산구 효자동3가 1215-5,127.09277895715775,35.81050969108346,527
전라북도,전주시,전주기전중. 여자고등학교(운동장),전라북도 전주시 완산구 효자동3가 393-0,127.1001159330344,35.82701866069537,4303
전라북도,전주시,전주대성초등학교(운동장),전라북도 전주시 완산구 대성동 45-0,127.17782000705603,35.79759026046074,327
전라북도,전주시,전주진북초등학교(운동장),전라북도 전주시 덕진구 진북동 1046-1,127.13212979124097,35.8258147346044,1541
전라북도,전주시,전주전일초등학교(운동장),전라북도 전주시 덕진구 진북동 382-1,127.13703653840152,35.829918929215005,1161
전라북도,전주시,전북도청 서편(다목적광장),전라북도 전주시 완산구 효자동3가 1-0,127.10678206213021,35.819489175551524,1464
전라북도,전주시,전주선화학교(운동장),전라북도 전주시 완산구 효자동3가 1130-0,127.09007965281158,35.82056918340762,1127
전라북도,전주시,전북도청 동편(농구장),전라북도 전주시 완산구 효자동3가 1-0,127.11188332174724,35.82014697091685,848
전라북도,전주시,전주문학초등학교(운동장),전라북도 전주시 완산구 효자동3가 1614-0,127.10258369905601,35.82826454692479,1106
전라북도,전주시,전주영생고등학교(운동장),전라북도 전주시 완산구 효자동3가 1191-1,127.09363872437048,35.816416822407795,1712
전라북도,전주시,호남제일고등학교(운동장),전라북도 전주시 완산구 효자동3가 1233-0,127.09995009453641,35.814421971428864,779
전라북도,전주시,전주은화학교(운동장),전라북도 전주시 완산구 효자동3가 1059-7,127.086504982009,35.81900752870961,985
전라북도,전주시,전주서곡중학교(운동장),전라북도 전주시 완산구 효자동3가 1407-4,127.10415828343913,35.83581753360622,1127
전라북도,전주시,전주사대부설고등학교(운동장),전라북도 전주시 완산구 효자동3가 1207-1,127.09374024366355,35.81527953446543,1524
경상북도,포항시,죽도동행정복지센터,경상북도 포항시 북구 죽도동 71-6,129.36350187436034,36.03112684633094,152
경상북도,포항시,죽도빗물펌프장,경상북도 포항시 북구 죽도동 45-1,129.36385739229644,36.03363289802298,212
경상북도,포항시,죽도초등학교 운동장,경상북도 포항시 북구 죽도동 633-5,129.35596494306762,36.0216826852999,1970
경상북도,포항시,대잠초등학교 운동장,경상북도 포항시 북구 죽도동 652-1,129.35369501856948,36.0197262525527,1697
경상북도,포항시,죽도2어린이공원,경상북도 포항시 북구 죽도동 195-6,129.35976098816926,36.02948341363661,303
경상북도,포항시,용흥초등학교 운동장,경상북도 포항시 북구 용흥동 532-1,129.34931674543614,36.038853834650936,1364
전라북도,전주시,전주대학교(대운동장),전라북도 전주시 완산구 효자동2가 1080-0,127.09067561707867,35.81393473667119,4470
전라북도,전주시,전주동암고등학교(운동장),전라북도 전주시 완산구 효자동2가 1200-2,127.10119573489945,35.805984112748256,2826
전라북도,전주시,전주우전중학교(운동장),전라북도 전주시 완산구 효자동2가 188-0,127.10599456980309,35.805285342516356,782
전라북도,전주시,전주서곡초등학교(운동장),전라북도 전주시 완산구 효자동3가 1474,127.10035971454055,35.832812082722924,448
전라북도,전주시,전주홍산초등학교(운동장),전라북도 전주시 완산구 효자동3가 1685-0,127.09868262731158,35.82042503262412,869
전라북도,전주시,전주비전대학교,전라북도 전주시 완산구 효자동2가 1070-0,127.09094839878058,35.80862634026783,4124
전라북도,전주시,전주새연초등학교(운동장),전라북도 전주시 완산구 효자동2가 1314-5,127.100531,35.811435,744
전라북도,전주시,전일고등학교(운동장),전라북도 전주시 완산구 효자동2가 619-0,127.10069152239691,35.81626159400991,1376
전라북도,전주시,전주우림중학교(운동장),전라북도 전주시 완산구 효자동2가 1199-3,127.0990765939545,35.80509196149389,894
전라북도,전주시,전주우전초등학교(운동장),전라북도 전주시 완산구 효자동2가 188-0,127.10701121042901,35.8056203177793,1467
전라북도,전주시,우림초등학교(운동장),전라북도 전주시 완산구 효자동2가 1193-6,127.09827485960477,35.80641181995864,393
전라북도,전주시,전주효림초등학교(운동장),전라북도 전주시 완산구 효자동1가 659-2,127.11299158363065,35.80305837349368,1158
전라북도,전주시,서원초등학교(운동장),전라북도 전주시 완산구 효자동1가 633,127.11914277633123,35.80967918790285,1280
전라북도,전주시,전주풍남중학교(운동장),전라북도 전주시 완산구 효자동1가 504-5,127.11601337630104,35.80012089659763,1806
전라북도,전주시,유일여자고등학교(운동장),전라북도 전주시 덕진구 인후동1가 500-37,127.15935037164525,35.83933908001215,2870
전라북도,전주시,전주인봉초등학교(운동장),전라북도 전주시 덕진구 인후동1가 917-0,127.16486760057161,35.82698626716923,861
전라북도,전주시,전주전라초등학교(운동장),전라북도 전주시 덕진구 인후동1가 575-1,127.1521665568267,35.839433601121605,1503
전라북도,전주시,전주기린초등학교(운동장),전라북도 전주시 덕진구 인후동1가 431-3,127.15933192965358,35.834939133283385,1097
경상북도,포항시,덕장1리 마을회관 주변,경상북도 포항시 북구 흥해읍 덕장리 1025-17,129.33439593436364,36.134191611375094,61
경상북도,포항시,용전2리 마을회관 주변,경상북도 포항시 북구 흥해읍 용전리 250-2,129.34241734639178,36.12585477831124,61
경상북도,포항시,용전1리 마을회관 주변,경상북도 포항시 북구 흥해읍 용전리 797-21,129.32973003771477,36.12074828935826,61
경상북도,포항시,곡강초등학교 운동장,경상북도 포항시 북구 흥해읍 용천리 1203-0,129.3485656009897,36.1303846413322,1273
경상북도,포항시,영흥초등학교 운동장,경상북도 포항시 북구 죽도동 26-2,129.36817904697756,36.031068484276766,2000
경상북도,포항시,포항항도중학교 운동장,경상북도 포항시 북구 죽도동 655-9,129.3558615186639,36.018697761254494,1364
전라북도,남원시,금지동초등학교 운동장,전라북도 남원시 금지면 옹정리 815-1,127.29982954769164,35.35663116187851,1116
전라북도,남원시,금지초등학교 운동장,전라북도 남원시 금지면 택내리 37-2,127.2927881508669,35.3332518644345,1761
전라북도,남원시,대강초등학교운동장,전라북도 남원시 대강면 사석리 732-4,127.22862153261235,35.34596755111497,1052
전라북도,남원시,대강중학교운동장,전라북도 남원시 대강면 방동리 500-1,127.21515520628031,35.341963362724464,1220
전라북도,남원시,남원국악예술고등학교 운동장,전라북도 남원시 월락동 159-0,127.4050451489198,35.424588120465074,1561
전라북도,남원시,남원공설운동장,전라북도 남원시 월락동 248-0,127.40513181314948,35.429965200434964,4434
전라북도,남원시,용성중학교운동장,전라북도 남원시 도통동 237,127.39302121384706,35.4208678007358,1132
전라북도,남원시,용성고등학교 운동장,전라북도 남원시 도통동 220-0,127.39197805308144,35.419586568460204,2067
전라북도,남원시,중앙초등학교 운동장,전라북도 남원시 도통동 374-0,127.3892626116828,35.41249079335223,1028
전라북도,남원시,한빛중학교운동장,전라북도 남원시 월락동 428,127.40225819430063,35.42315019844577,1255
전라북도,남원시,월락초등학교 운동장,전라북도 남원시 월락동 162-4,127.4036449223379,35.42361432221816,682
전라북도,남원시,남원교룡초등학교,전라북도 남원시 향교동 740-2,127.37901957846104,35.41664132494688,1178
전라북도,남원시,남원중학교운동장,전라북도 남원시 향교동 640,127.37922417810607,35.42025160121492,2074
전라북도,남원시,남원고등학교 운동장,전라북도 남원시 향교동 412-0,127.38091111952492,35.42053193557778,2314
전라북도,남원시,남원왕치초등학교운동장,전라북도 남원시 용정동 111,127.38250680712022,35.43377250531305,846
전라북도,남원시,도통초등학교운동장,전라북도 남원시 도통동 613,127.39452109726055,35.41332577677612,500
경상북도,포항시,용곡리 마을회관 주변,경상북도 포항시 북구 흥해읍 용곡리 367-0,129.30980462280164,36.12215647426661,61
경상북도,포항시,양백1리 마을회관 주변,경상북도 포항시 북구 흥해읍 양백리 477-0,129.32075517719568,36.1259793392959,61
경상북도,포항시,양백2리 마을회관 주변,경상북도 포항시 북구 흥해읍 양백리 204-0,129.3249183453395,36.13086791058964,61
경상북도,포항시,덕성2리 마을회관 주변,경상북도 포항시 북구 흥해읍 덕성리 254-1,129.321230425775,36.1449306443483,61
경상북도,포항시,덕성1리 마을회관 주변,경상북도 포항시 북구 흥해읍 덕성리 533-0,129.3053107627684,36.1498781367657,61
경상북도,포항시,덕장2리 마을회관 주변,경상북도 포항시 북구 흥해읍 덕장리 396-0,129.34469632781423,36.14460955867109,61
경상북도,포항시,용한1리 마을회관 주변,경상북도 포항시 북구 흥해읍 용한리 535-0,129.42564935034102,36.11154614864205,61
경상북도,포항시,죽천초등학교 운동장,경상북도 포항시 북구 흥해읍 우목리 20-0,129.42777869165306,36.09802641745592,1364
경상북도,포항시,죽천2리 마을회관 주변,경상북도 포항시 북구 흥해읍 죽천리 333-10,129.4164502484139,36.08380185005896,61
경상북도,포항시,죽천1리 마을회관 주변,경상북도 포항시 북구 흥해읍 죽천리 111-10,129.41929988463033,36.08949960871202,61
경상북도,포항시,포항대학교 운동장,경상북도 포항시 북구 흥해읍 죽천리 442-1,129.4094059578657,36.0854015489955,3333
경상북도,포항시,용곡리 정자 및 인근 공터,경상북도 포항시 북구 흥해읍 용곡리 173-1,129.31218391078025,36.12205984387701,61
전라북도,남원시,남원여자고등학교 운동장,전라북도 남원시 왕정동 100-0,127.3704114628029,35.41013977904012,1021
경기도,오산시,성호초등학교,경기도 오산시 오산동 862-1,127.07103943263395,37.14975961019114,1572
경기도,오산시,운암제1근린공원,경기도 오산시 오산동 920-1,127.07621029591816,37.155700400702706,2785
경기도,오산시,운산초등학교,경기도 오산시 오산동 923-1,127.07742346772137,37.15241890111402,1165
경기도,오산시,운천초등학교,경기도 오산시 부산동 778-4,127.07913100211263,37.156092903423875,1699
경기도,오산시,다온초등학교,경기도 오산시 부산동 794-0,127.09057401006271,37.15153943803738,786
경기도,오산시,원동초등학교,경기도 오산시 원동 805-0,127.06976224619596,37.135125742059024,436
경기도,남양주시,연세중학교 운동장,경기도 남양주시 조안면 송촌리 760,127.32168575760356,37.56864987138765,1425
경기도,남양주시,남양주 송촌초등학교 운동장,경기도 남양주시 조안면 송촌리 692,127.3187401736475,37.56739641799497,875
경기도,오산시,오산종합운동장,경기도 오산시 오산동 49-0,127.07362750809234,37.15729517336158,4974
경기도,오산시,성산초등학교,경기도 오산시 오산동 524-1,127.06651447684602,37.1497457382254,1442
경기도,시흥시,경기자동차과학고등학교 운동장,경기도 시흥시 무지내동 341-2,126.83946740150269,37.41339460441524,909
경기도,군포시,군포초등학교 운동장,경기도 군포시 당동 795-4,126.94268710664245,37.347971173975026,2316
경기도,군포시,군포중학교 운동장,경기도 군포시 당동 735,126.94472860921043,37.357495424116856,1845
경기도,군포시,당동초등학교 운동장,경기도 군포시 당동 967-0,126.93958054035788,37.34573672780106,647
경기도,군포시,용호고등학교 운동장,경기도 군포시 당동 875-0,126.9394688557447,37.342320540225714,1194
경기도,군포시,한세대학교 운동장,경기도 군포시 당정동 964-1,126.95246156759447,37.346885198458054,1268
경기도,군포시,당정공원,경기도 군포시 당정동 762-2,126.94703215887185,37.34430235123417,3420
경기도,시흥시,소망공원,경기도 시흥시 정왕동 1368,126.72564357654815,37.33343665665208,11515
경기도,시흥시,희망공원,경기도 시흥시 정왕동 1358,126.7147269324776,37.33704959836468,38480
경기도,시흥시,함현고등학교 운동장,경기도 시흥시 정왕동 1878-9,126.73818469453228,37.36584257016382,182
경기도,시흥시,군서초등학교 운동장,경기도 시흥시 정왕동 1175-0,126.75136584304099,37.34714531203696,888
경기도,시흥시,옥구공원,경기도 시흥시 정왕동 2138,126.71448628681772,37.35638864132335,30303
경기도,시흥시,송운중학교 운동장,경기도 시흥시 정왕동 1875-4,126.73111194728544,37.35924913973018,1121
경기도,시흥시,산들공원,경기도 시흥시 거모동 1354-0,126.78018934055267,37.34739846813949,4664
경기도,시흥시,군자초등학교 운동장,경기도 시흥시 거모동 1582-1,126.7870908118463,37.34364013782961,1047
경기도,시흥시,장곡공원,경기도 시흥시 장곡동 815-0,126.78410212879017,37.37901522219201,995
경기도,시흥시,월곶중학교 운동장,경기도 시흥시 월곶동 1010-2,126.73785814289077,37.39246062344503,242
경기도,시흥시,도일초등학교 운동장,경기도 시흥시 거모동 1379-0,126.78199199205427,37.34883996494204,1358
경기도,시흥시,산현공원,경기도 시흥시 조남동 670-0,126.8510061735669,37.37428982482123,4058
경기도,시흥시,목감초등학교 운동장,경기도 시흥시 논곡동 160-37,126.85891590381442,37.386532753802065,377
경기도,시흥시,논곡중학교 운동장,경기도 시흥시 논곡동 160-45,126.85734775223189,37.38865433312522,850
경기도,시흥시,목감공원,경기도 시흥시 목감동 398-0,126.8612155635808,37.38551094053091,4592
경기도,시흥시,샛말근린공원,경기도 시흥시 하중동 848-0,126.80496646544574,37.39507738561141,3357
경기도,시흥시,연성중학교 운동장,경기도 시흥시 하상동 370,126.81385999231321,37.392467422327506,909
경기도,시흥시,가래울어린이공원,경기도 시흥시 능곡동 793-0,126.81389972384872,37.36510335039555,2834
경기도,시흥시,능곡초등학교 운동장,경기도 시흥시 능곡동 797,126.81261960031705,37.3654191651724,688
경기도,시흥시,은행고등학교 운동장,경기도 시흥시 은행동 543-2,126.80323101654466,37.44293127262401,1432
경기도,시흥시,비둘기공원,경기도 시흥시 은행동 551-0,126.79383571534842,37.44132555551404,6061
경기도,시흥시,매화중학교 운동장,경기도 시흥시 매화동 269,126.81564809581603,37.41302982370888,848
경기도,시흥시,매화초등학교 운동장,경기도 시흥시 매화동 445-1,126.80794035438926,37.41614267761315,1364
경기도,시흥시,중앙공원,경기도 시흥시 능곡동 766-0,126.81320420316116,37.36804393984693,5263
경기도,시흥시,능골공원,경기도 시흥시 능곡동 781-0,126.80825622012301,37.36565389339675,6139
경기도,시흥시,승지공원,경기도 시흥시 능곡동 552-0,126.81316990902458,37.3717219043703,3285
경기도,시흥시,신일초등학교 운동장,경기도 시흥시 신천동 885-1,126.7914028074496,37.43249547165547,1972
경기도,시흥시,도원초등학교 운동장,경기도 시흥시 신천동 438-1,126.77753960284126,37.43974464378051,1068
경기도,시흥시,소래초등학교 운동장,경기도 시흥시 신천동 704-2,126.78407987274092,37.44353195972007,1361
경기도,시흥시,신천초등학교 운동장,경기도 시흥시 신천동 203-0,126.78282717964456,37.43495624524565,1061
경기도,시흥시,포동생활체육공원 내 포동시민운동장,경기도 시흥시 포동 67-207,126.78443319591011,37.40376818345575,2164
경기도,의왕시,모락중학교 운동장,경기도 의왕시 오전동 11-4,126.96721637674635,37.367974196517764,1020
경기도,의왕시,고천중학교 운동장,경기도 의왕시 오전동 413,126.98279186171402,37.35265736504902,662
경기도,의왕시,모락고등학교 운동장,경기도 의왕시 오전동 산58-10,126.96664786155189,37.36971509888117,789
경기도,의왕시,백운호수초등학교 운동장,경기도 의왕시 학의동 산100-2,127.0072844184433,37.37101786828257,788
경기도,의왕시,갈뫼초등학교 운동장,경기도 의왕시 내손동 780,126.97241662037526,37.37654644647702,770
경기도,의왕시,내손초등학교 운동장,경기도 의왕시 내손동 849-1,126.98207622155105,37.38850065447874,1091
경기도,시흥시,신천근린공원,경기도 시흥시 신천동 57-0,126.78527822007874,37.43558611363746,7533
경기도,의왕시,의왕부곡초등학교 운동장,경기도 의왕시 삼동 572-1,126.95011264137878,37.31536071455004,4491
경기도,의왕시,왕곡초등학교 운동장,경기도 의왕시 왕곡동 604,126.98048995279318,37.34549253981848,1532
경기도,의왕시,고천체육공원,경기도 의왕시 왕곡동 270-2,126.98246341730182,37.346750405284986,4697
경기도,의왕시,의왕중학교 운동장,경기도 의왕시 오전동 350-1,126.97502774621344,37.35147562517128,2037
경기도,의왕시,오전초등학교 운동장,경기도 의왕시 오전동 848,126.9723823320903,37.35447757911099,3343
경기도,의왕시,모락초등학교 운동장,경기도 의왕시 오전동 235,126.97275487745021,37.35821234578684,509
경기도,의왕시,의왕초등학교 운동장,경기도 의왕시 오전동 27-5,126.96822114116397,37.36315160340388,748
경기도,의왕시,고천초등학교 운동장,경기도 의왕시 고천동 296-1,126.97536609421773,37.34858606617399,2886
경기도,의왕시,경기외국어고등학교 운동장,경기도 의왕시 고천동 438-1,126.95954450497513,37.347357721029226,924
경기도,의왕시,우성고등학교 운동장,경기도 의왕시 고천동 496,126.98012410408036,37.348673406968956,2585
경기도,의왕시,의왕고등학교 운동장,경기도 의왕시 삼동 268,126.95834969415937,37.322200823848455,1331
경기도,의왕시,의왕덕성초등학교 운동장,경기도 의왕시 삼동 263,126.95821222997357,37.32128365174033,1358
경기도,군포시,금정제일공원,경기도 군포시 금정동 755-0,126.94433877804332,37.36066832424756,1534
경기도,군포시,둔대초등학교 운동장,경기도 군포시 둔대동 219,126.91163593238751,37.326949222027956,754
경기도,군포시,대야초등학교 운동장,경기도 군포시 대야미동 220-4,126.91520467084085,37.32905035254422,632
경기도,군포시,시민체육광장 운동장,경기도 군포시 금정동 871,126.93652350815204,37.35416641471212,5424
경기도,군포시,흥진초등학교 운동장,경기도 군포시 금정동 875-5,126.92860,37.353522,1161
경기도,군포시,금정초등학교 운동장,경기도 군포시 금정동 703,126.9408651110897,37.36677184636464,1364
경기도,군포시,궁내공원,경기도 군포시 산본동 1119-5,126.9217658425869,37.36525712003947,567
경기도,군포시,산본중앙공원,경기도 군포시 산본동 1122,126.92982136482634,37.36185553426273,5038
경기도,군포시,도장공원,경기도 군포시 산본동 1145-7,126.92891353969257,37.356187588961305,636
경기도,군포시,도장초등학교,경기도 군포시 산본동 1155-5,126.92316991612377,37.34857084790889,1712
경기도,군포시,초막골 생태공원,경기도 군포시 산본동 917-3,126.91841051129774,37.349100104282996,29076
경기도,군포시,슬기어린이공원,경기도 군포시 산본동 1239,126.93598722858174,37.37094481387769,709
경기도,군포시,재궁공원,경기도 군포시 금정동 870-0,126.93958310327518,37.35889716435744,1758
경기도,군포시,철쭉공원,경기도 군포시 산본동 1153,126.9258199706574,37.353070612571884,5621
경기도,군포시,산본초등학교 운동장,경기도 군포시 산본동 209,126.93433534739009,37.368525334262465,1552
경기도,군포시,관모초등학교 운동장,경기도 군포시 산본동 1054,126.93817919357954,37.37601114150273,1345
경기도,군포시,궁내초등학교 운동장,경기도 군포시 산본동 1149-3,126.9203111609536,37.3644788969716,1146
경기도,군포시,능안공원,경기도 군포시 산본동 1065,126.93132384447252,37.371301903388584,1261
경기도,군포시,부곡중앙중학교 운동장,경기도 군포시 부곡동 1095-0,126.93865637126592,37.32343550935834,689
경기도,군포시,부곡중앙초등학교 운동장,경기도 군포시 부곡동 1113-0,126.94089673614862,37.32268533678192,478
경기도,군포시,복합생활스포츠타운 운동장,경기도 군포시 부곡동 1226,126.93487271056739,37.33941552204128,3452
경상남도,고성군,영천중학교 운동장,경상남도 고성군 영오면 영산리 250,128.23589167120682,35.10893775427759,1845
경기도,용인시,용마초등학교 운동장,경기도 용인시 처인구 마평동 675-4,127.21474931318077,37.23682594154178,1726
경기도,용인시,운학초등학교 운동장,경기도 용인시 처인구 운학동 220-1,127.24626581358875,37.203118064865535,2235
경기도,용인시,둔전초등학교 운동장,경기도 용인시 처인구 포곡읍 둔전리 108-10,127.22527300202793,37.268524869007756,801
경기도,용인시,영문중학교 운동장,경기도 용인시 처인구 포곡읍 영문리 554,127.20845779672943,37.27174934004469,400
경기도,용인시,포곡초등학교 운동장,경기도 용인시 처인구 포곡읍 전대리 167-1,127.21946641345198,37.28196240692697,1726
경기도,군포시,당정초등학교 운동장,경기도 군포시 당정동 972-1,126.95471065217502,37.34642704291848,818
경기도,군포시,한우물근린공원,경기도 군포시 당정동 181-44,126.9552628141069,37.35914618139156,2096
경기도,용인시,숲속어린이공원,경기도 용인시 처인구 삼가동 289-16,127.16378665756682,37.23873862004469,1035
경기도,용인시,용인성산초등학교 운동장,경기도 용인시 처인구 유방동 317-1,127.21634272110703,37.25847103796761,897
경기도,용인시,고림초등학교 운동장,경기도 용인시 처인구 고림동 340-2,127.2273298466992,37.24722344102078,1205
경기도,용인시,용인덕영고등학교 운동장,경기도 용인시 처인구 고림동 737-1,127.21620518610548,37.24099115611256,2343
경기도,하남시,고골초등학교 운동장,경기도 하남시 하사창동 263-1,127.19752937496476,37.51820332390529,1050
경기도,용인시,용인중학교 운동장,경기도 용인시 처인구 김량장동 203-3,127.2013602140405,37.23857218743445,1523
경기도,용인시,용인초등학교 운동장,경기도 용인시 처인구 김량장동 228-1,127.2051914751996,37.23808022287457,1215
경기도,용인시,용인고등학교 운동장,경기도 용인시 처인구 역북동 444-1,127.19305990650064,37.240355238635566,727
경기도,용인시,서룡초등학교 운동장,경기도 용인시 처인구 역북동 416,127.18681247940123,37.23763593271641,1258
경기도,용인시,삼가초등학교 운동장,경기도 용인시 처인구 삼가동 555,127.17070451379129,37.23662119861366,1087
경기도,하남시,윤슬초등학교 운동장,경기도 하남시 망월동 1046-0,127.183132,37.563166,806
경기도,하남시,청아초등학교 운동장,경기도 하남시 풍산동 561-0,127.193916,37.558383,715
경기도,하남시,한홀초등학교 운동장,경기도 하남시 풍산동 483-0,127.184954,37.556009,933
경기도,하남시,미사강변중학교 운동장,경기도 하남시 선동 420-0,127.185244,37.577558,697
경기도,하남시,서부초등학교 운동장,경기도 하남시 감일동 14-8,127.16210866350303,37.51538201489173,1252
경기도,하남시,위례초등학교 운동장,경기도 하남시 학암동 665-0,127.14958370224379,37.47665313186961,664
경기도,하남시,위례고등학교 운동장,경기도 하남시 학암동 666-0,127.150566,37.476474,1061
경기도,하남시,미사초등학교 운동장,경기도 하남시 망월동 935-0,127.193382,37.571305,761
경기도,의왕시,의왕부곡중학교 운동장,경기도 의왕시 월암동 431,126.95668519587811,37.31442098375252,1471
경기도,하남시,한국애니메이션고등학교 운동장,경기도 하남시 창우동 523-4,127.22724987459846,37.53453824482591,202
경기도,하남시,신장초등학교 운동장,경기도 하남시 신장동 422-10,127.2080190488911,37.54225376472332,1468
경기도,하남시,하남천현초등학교 운동장,경기도 하남시 신장동 529,127.21637100731617,37.53786669718666,1024
경기도,하남시,동부중학교 운동장,경기도 하남시 덕풍동 450-1,127.20288009769114,37.53554286863367,1091
경기도,하남시,동부초등학교 운동장,경기도 하남시 덕풍동 427,127.20253644838911,37.53711963101782,1021
경기도,의왕시,백운고등학교 운동장,경기도 의왕시 내손동 665-5,126.98619003823191,37.387280775151105,682
경기도,의왕시,백운초등학교 운동장,경기도 의왕시 내손동 622,126.97469603024187,37.38602789436173,2105
경기도,의왕시,덕장초등학교 운동장,경기도 의왕시 청계동 975,126.99735067052855,37.39195155232134,835
경기도,의왕시,덕장중학교 운동장,경기도 의왕시 청계동 973,126.99844047018702,37.39278571127489,848
경기도,의왕시,포일초등학교 운동장,경기도 의왕시 포일동 647,126.98574660099261,37.39912890717293,957
경기도,의왕시,백운중학교 운동장,경기도 의왕시 포일동 170-1,126.9901008898482,37.390469442962605,1391
경기도,의왕시,부곡체육공원,경기도 의왕시 월암동 421,126.95923399706668,37.314212493513764,10456
경기도,용인시,마북초등학교 운동장,경기도 용인시 기흥구 마북동 550-13,127.11019978948963,37.30247257324649,1632
경기도,용인시,교동초등학교 운동장,경기도 용인시 기흥구 마북동 618,127.12230416332889,37.30012909873181,886
경기도,용인시,구성초등학교 운동장,경기도 용인시 기흥구 마북동 333-0,127.11461817024559,37.29561126272028,260
경기도,의왕시,내손체육공원,경기도 의왕시 내손동 666-0,126.98350318944948,37.38678287912162,9263
경기도,의왕시,갈뫼중학교 운동장,경기도 의왕시 내손동 785,126.97452651069469,37.37755793810269,962
경기도,의왕시,내동초등학교 운동장,경기도 의왕시 내손동 848-1,126.97991257575686,37.3890447281358,1202
경기도,용인시,언동중학교 운동장,경기도 용인시 기흥구 언남동 132-5,127.13027547511675,37.29424787031717,642
경기도,용인시,언동초등학교 운동장,경기도 용인시 기흥구 언남동 132-10,127.13175196112796,37.29501334952704,1600
경기도,용인시,자은근린공원,경기도 용인시 기흥구 영덕동 1236,127.08404104827032,37.275609763929126,499
경기도,용인시,페가수스자리공원,경기도 용인시 기흥구 영덕동 1105-1,127.08876471408723,37.27315552427953,388
경기도,용인시,기흥초등학교 운동장,경기도 용인시 기흥구 공세동 198-1,127.1096480858008,37.23194388512476,2724
경기도,용인시,서천고등학교 운동장,경기도 용인시 기흥구 농서동 401,127.06937819731544,37.23386981866738,882
경기도,용인시,서천중학교 운동장,경기도 용인시 기흥구 서천동 797,127.0754812289931,37.24028003184383,688
경기도,용인시,남산근린공원,경기도 용인시 기흥구 서천동 802,127.07294964825454,37.2352003051606,1035
경기도,용인시,흥덕고등학교 운동장,경기도 용인시 기흥구 영덕동 1020,127.07430165810008,37.270477747499086,3770
경기도,용인시,흥덕중학교 운동장,경기도 용인시 기흥구 영덕동 959,127.0795473047614,37.27664361845086,3814
경기도,용인시,양별자리공원,경기도 용인시 기흥구 영덕동 1075,127.08267549331693,37.272130633185576,358
경기도,용인시,구갈초등학교 운동장,경기도 용인시 기흥구 구갈동 397,127.11188161746347,37.27753441647614,1696
경기도,용인시,갈곡초등학교 운동장,경기도 용인시 기흥구 구갈동 601,127.13354852818084,37.271183160492484,1084
경기도,용인시,한성어린이공원,경기도 용인시 기흥구 구갈동 383-1,127.11435848051542,37.27802525572971,484
경기도,용인시,강남근린공원,경기도 용인시 기흥구 구갈동 598-0,127.12974217148032,37.27269572070984,18182
경기도,용인시,나산초등학교 운동장,경기도 용인시 기흥구 보라동 613,127.10919779637352,37.25039235670909,1530
경기도,용인시,지곡초등학교 운동장,경기도 용인시 기흥구 지곡동 703,127.13840719489293,37.251982409961016,1068
경기도,용인시,한일초등학교 운동장,경기도 용인시 기흥구 공세동 680,127.10683698962801,37.243149798467215,920
경기도,용인시,신갈초등학교 운동장,경기도 용인시 기흥구 신갈동 56,127.10662432979677,37.27344072779874,4890
경기도,용인시,구갈중학교 운동장,경기도 용인시 기흥구 신갈동 163-0,127.108540822338,37.284467280603046,728
경기도,용인시,도현어린이공원,경기도 용인시 기흥구 신갈동 165-1,127.10819844735283,37.28560934683807,732
경기도,용인시,만골근린공원,경기도 용인시 기흥구 신갈동 산14-0,127.11501321429797,37.28652138389384,12125
경기도,용인시,한터초등학교 운동장,경기도 용인시 처인구 양지면 대대리 577,127.26863354695357,37.261838561991546,303
경기도,용인시,신갈중학교 운동장,경기도 용인시 기흥구 신갈동 113,127.10828127510435,37.28040916477454,1484
경기도,용인시,백암초등학교 운동장,경기도 용인시 처인구 백암면 근창리 105,127.36780166195719,37.16414900445325,1303
경기도,용인시,양지초등학교 운동장,경기도 용인시 처인구 양지면 양지리 350,127.28456377786381,37.23689779913582,782
경기도,용인시,제일초등학교 운동장,경기도 용인시 처인구 양지면 제일리 488-1,127.31323870386117,37.24266723242756,1061
경기도,용인시,좌항초등학교 운동장,경기도 용인시 처인구 원삼면 좌항리 126-4,127.3204628301254,37.20170292784371,1129
경기도,용인시,원삼초등학교 운동장,경기도 용인시 처인구 원삼면 독성리 295-1,127.31534128964532,37.163506892111194,850
경기도,용인시,백봉초등학교 운동장,경기도 용인시 처인구 백암면 백봉리 192,127.40026959032852,37.13786593917878,335
경기도,용인시,백암중고등학교 운동장,경기도 용인시 처인구 백암면 근창리 166,127.36888627905404,37.165239996249205,2763
경기도,용인시,손초어린이공원,경기도 용인시 수지구 동천동 968,127.08438730635314,37.33859446679023,570
경기도,용인시,남사초등학교 운동장,경기도 용인시 처인구 남사면 봉무리 662,127.14850397069154,37.11362270372357,114
경기도,용인시,남촌초등학교 운동장,경기도 용인시 처인구 남사면 진목리 141-5,127.13767551887452,37.10142729504645,1485
경기도,용인시,남곡초등학교 운동장,경기도 용인시 처인구 남사면 아곡리 506,127.16708081442304,37.14038457383683,976
경기도,용인시,용인대일초등학교 운동장,경기도 용인시 수지구 죽전동 1247,127.11865953759981,37.32769753449222,1033
경기도,용인시,대청초등학교 운동장,경기도 용인시 수지구 죽전동 1389,127.12881887794471,37.334033798398394,1462
경기도,용인시,현암초등학교 운동장,경기도 용인시 수지구 죽전동 1229,127.12462252327863,37.32901218235027,606
경기도,용인시,대현초등학교 운동장,경기도 용인시 수지구 죽전동 869-1,127.10687748656729,37.333550637911344,78
경기도,용인시,죽전체육공원,경기도 용인시 수지구 죽전동 555-4,127.11345753653872,37.330302793014816,980
경기도,용인시,죽전중학교 운동장,경기도 용인시 수지구 죽전동 873-4,127.10751747899539,37.332584521193404,1293
경기도,용인시,동천초등학교 운동장,경기도 용인시 수지구 동천동 154,127.09378283656842,37.34424625239421,1521
경기도,용인시,풍덕초등학교 운동장,경기도 용인시 수지구 풍덕천동 664-1,127.09551576661964,37.329889314396326,929
경기도,용인시,정평중학교 운동장,경기도 용인시 수지구 풍덕천동 1117,127.08802334462473,37.31784216873297,3022
경기도,용인시,임진어린이공원,경기도 용인시 수지구 풍덕천동 1155,127.09357819127818,37.318027659960634,350
경기도,용인시,문정중학교 운동장,경기도 용인시 수지구 풍덕천동 105-0,127.09897122211392,37.32319756454203,1323
경기도,용인시,토월초등학교 운동장,경기도 용인시 수지구 풍덕천동 698-1,127.09174262998745,37.324944255898835,1762
경기도,용인시,죽전초등학교 운동장,경기도 용인시 수지구 죽전동 513-1,127.11029808730403,37.33352803980595,690
경기도,용인시,대지초등학교 운동장,경기도 용인시 수지구 죽전동 313-3,127.1158957953959,37.32970565437197,1022
경기도,용인시,신월초등학교 운동장,경기도 용인시 수지구 풍덕천동 1097,127.09288406489951,37.320697346785416,881
경기도,용인시,보정초등학교 운동장,경기도 용인시 기흥구 보정동 1299,127.11081774703403,37.308942345038155,1212
경기도,용인시,독정초등학교 운동장,경기도 용인시 기흥구 보정동 1256,127.11618744929137,37.31857905974813,141
경기도,용인시,이현초등학교 운동장,경기도 용인시 기흥구 보정동 1164,127.0929788236813,37.31004332789477,688
경기도,용인시,석성초등학교 운동장,경기도 용인시 기흥구 중동 955,127.15826239836372,37.2701742489585,1045
경기도,용인시,어정초등학교 운동장,경기도 용인시 기흥구 중동 614-3,127.14751207407406,37.27691073819311,965
경기도,용인시,중일초등학교 운동장,경기도 용인시 기흥구 중동 1098,127.14319476112637,37.28561156912171,843
경기도,용인시,지석초등학교 운동장,경기도 용인시 기흥구 상하동 435-8,127.13885471992194,37.269746432174266,692
경기도,용인시,상하중학교 운동장,경기도 용인시 기흥구 상하동 672,127.13580760082209,37.26160303821207,1035
경기도,용인시,상하초등학교 운동장,경기도 용인시 기흥구 상하동 674-0,127.14080940206776,37.25683576418716,874
경기도,용인시,동막초등학교 운동장,경기도 용인시 기흥구 동백동 576,127.15533506577286,37.28584929409675,826
경기도,용인시,초당중학교 운동장,경기도 용인시 기흥구 중동 1048,127.15698394896519,37.265378204413906,1611
경기도,용인시,초당고등학교 운동장,경기도 용인시 기흥구 중동 1040,127.16330609034294,37.258560909122416,1096
경기도,용인시,어정중학교 운동장,경기도 용인시 기흥구 중동 1103,127.14526841302767,37.28053211564707,1077
경기도,용인시,초당초등학교 운동장,경기도 용인시 기흥구 중동 1010,127.16079959189713,37.263181332910115,1080
경기도,용인시,청덕초등학교 운동장,경기도 용인시 기흥구 청덕동 507,127.14942853428195,37.29434920411676,867
경기도,용인시,동백고등학교 운동장,경기도 용인시 기흥구 동백동 601,127.15860206513904,37.28300847772234,1165
경기도,용인시,동백중학교 운동장,경기도 용인시 기흥구 동백동 578,127.15857060810053,37.28535339358938,1515
경기도,용인시,용인백현초등학교 운동장,경기도 용인시 기흥구 동백동 600,127.16193322201258,37.283177146756046,1383
경기도,용인시,백현고등학교 운동장,경기도 용인시 기흥구 동백동 664,127.1625509759907,37.27914617905812,1170
경기도,용인시,동백초등학교 운동장,경기도 용인시 기흥구 동백동 658,127.15637274967955,37.280345028628595,1143
경기도,용인시,백현중학교 운동장,경기도 용인시 기흥구 동백동 591,127.16444539932793,37.28098604369628,1350
경기도,파주시,"율곡중,고등학교 운동장",경기도 파주시 법원읍 법원리 378,126.88176411343755,37.84864918428596,2045
경기도,파주시,법원여자중학교 운동장,경기도 파주시 법원읍 가야리 57-1,126.86879731607739,37.85239808897772,1636
경기도,파주시,천현초등학교 운동장,경기도 파주시 법원읍 법원리 440-1,126.87804351760417,37.849257986995724,1557
경기도,파주시,문산동초등학교 운동장,경기도 파주시 문산읍 선유리 788-1,126.7982763662877,37.86537562035709,1127
경기도,파주시,선유중학교 운동장,경기도 파주시 문산읍 선유리 1395-0,126.80212232768945,37.86657251961326,857
경기도,파주시,문산체육공원,경기도 파주시 문산읍 임진리 51-21,126.79333733405406,37.88429046455051,7430
경기도,파주시,내포리체육공원,경기도 파주시 문산읍 내포리 산140-1,126.746311,37.840083,3185
경기도,파주시,파주초등학교 운동장,경기도 파주시 파주읍 파주리 492-3,126.81431300922448,37.83184320177275,2727
경기도,파주시,연풍초등학교 운동장,경기도 파주시 파주읍 연풍리 427,126.83461075328927,37.830822126756814,2727
경기도,파주시,세경고등학교 운동장,경기도 파주시 파주읍 연풍리 445-0,126.8297655745953,37.83224713079678,1227
경기도,파주시,문산초등학교 운동장,경기도 파주시 문산읍 문산리 86,126.78299505547234,37.86050375252888,818
경기도,파주시,임진초등학교 운동장,경기도 파주시 문산읍 문산리 21,126.78483512993564,37.854514415532066,1151
경기도,파주시,문산동중학교 운동장,경기도 파주시 문산읍 문산리 95-9,126.78197379863771,37.85987586349058,1939
경기도,파주시,자유초등학교 운동장,경기도 파주시 문산읍 당동리 939,126.78667419877854,37.86548014233769,979
경기도,파주시,문산북중학교 운동장,경기도 파주시 문산읍 당동리 149,126.77606106630363,37.86251246263623,1558
경기도,파주시,파주고등학교 운동장,경기도 파주시 문산읍 당동리 140-0,126.7813818052175,37.860050661190265,1939
경기도,파주시,문산고등학교 운동장,경기도 파주시 문산읍 당동리 149,126.77606106630363,37.86251246263623,1558
경기도,파주시,금촌고등학교 운동장,경기도 파주시 금릉동 451,126.77845090491967,37.75009090697491,1392
경기도,파주시,금촌중학교 운동장,경기도 파주시 금릉동 449,126.7785141569742,37.75128688668951,797
경기도,파주시,신촌동 공터 2,경기도 파주시 신촌동 722-3,126.69475349065014,37.73062334164606,1376
경기도,파주시,지산초등학교 운동장,경기도 파주시 와동동 1339-5,126.7617310658838,37.73086339974411,805
경기도,파주시,와동초등학교 운동장,경기도 파주시 와동동 1348-1,126.75709549972213,37.726485292753026,1097
경기도,파주시,지산중학교 운동장,경기도 파주시 와동동 1356-1,126.75226993062977,37.72454390510514,922
경기도,파주시,한가람초등학교 운동장,경기도 파주시 와동동 1318,126.75614734924929,37.73189608930896,2655
경기도,파주시,한가람중학교 운동장,경기도 파주시 와동동 1316,126.7565512346956,37.73089441078974,764
경기도,파주시,운정고등학교 운동장,경기도 파주시 목동동 1146,126.73621261775561,37.72180621329934,864
경기도,파주시,교하체육공원,경기도 파주시 하지석동 326-3,126.74147140247698,37.76210498506916,2615
경기도,파주시,신촌동 공터 1,경기도 파주시 신촌동 725-4,126.69476935662846,37.72833062009771,764
경기도,파주시,문발초등학교 운동장,경기도 파주시 문발동 555,126.70687498309293,37.72601155276954,914
경기도,파주시,가온초등학교 운동장,경기도 파주시 목동동 687,126.74709142991863,37.720402715754524,870
경기도,파주시,청암초등학교 운동장,경기도 파주시 목동동 114-46,126.73791217784206,37.7307175598402,812
경기도,파주시,해솔초등학교 운동장,경기도 파주시 목동동 664,126.74723026626356,37.726532440419795,560
경기도,파주시,해솔중학교 운동장,경기도 파주시 목동동 661,126.7462576120818,37.72696954964434,517
경기도,파주시,자운학교 운동장,경기도 파주시 목동동 1090,126.74239571872947,37.71896566328933,3662
서울특별시,강동구,강명초등학교 운동장,서울특별시 강동구 상일동 480-0,127.17348768761903,37.554225555045335,832
경기도,안성시,개산초등학교 운동장,경기도 안성시 금광면 개산리 168-3,127.30156911239779,36.984516675078666,970
경기도,안성시,금광초등학교 운동장,경기도 안성시 금광면 금광리 107-1,127.32439665047663,37.000237335646226,1316
경기도,안성시,서운중학교 운동장,경기도 안성시 서운면 인리 67,127.26340507234521,36.94426261050707,2268
경기도,안성시,산평초등학교 운동장,경기도 안성시 서운면 산평리 160-2,127.26115006492165,36.920096099623805,910
경기도,안성시,현매초등학교 운동장,경기도 안성시 서운면 현매리 193,127.2302001840514,36.93585681914448,740
경기도,안성시,서운초등학교 운동장,경기도 안성시 서운면 동촌리 146-2,127.2552454274808,36.9462731003367,870
경기도,안성시,개정초등학교 운동장,경기도 안성시 미양면 개정리 304-1,127.18841834491478,36.96068083475822,1030
충청남도,서천군,서면초등학교 운동장,충청남도 서천군 서면 신합리 466-1,126.55546328118584,36.15359649764036,458
충청남도,서천군,서도초등학교 운동장,충청남도 서천군 서면 도둔리 677-2,126.52129378045205,36.153066154199145,649
충청남도,청양군,청양초등학교 운동장,충청남도 청양군 청양읍 읍내리 5-2,126.8058400154513,36.45361177240581,1428
충청남도,청양군,청신여자중학교 운동장,충청남도 청양군 청양읍 벽천리 36-0,126.80002739565442,36.441752062260285,2380
충청남도,청양군,청양고등학교 운동장,충청남도 청양군 청양읍 송방리 133-0,126.79729157279392,36.451921608170736,3485
충청남도,청양군,청양중학교 운동장,충청남도 청양군 청양읍 송방리 133-1,126.79583750917615,36.45164541546615,3250
충청남도,청양군,청송초등학교 운동장,충청남도 청양군 청양읍 송방리 292-1,126.78772395425938,36.44929467980413,3942
충청남도,청양군,운곡초등학교 운동장,충청남도 청양군 운곡면 신대리 598-0,126.84609360191345,36.52447184185376,1953
충청남도,서천군,마산초등학교 운동장,충청남도 서천군 마산면 마명리 353,126.79517502005943,36.12065387756774,1074
충청남도,서천군,시초초등학교 운동장,충청남도 서천군 시초면 초현리 61-1,126.75155789577558,36.12189946180406,752
충청남도,서천군,문산초등학교 운동장,충청남도 서천군 문산면 신농리 21-1,126.75134928905837,36.14264673957438,673
충청남도,서천군,오성초등학교 운동장,충청남도 서천군 판교면 현암리 365,126.68352206427434,36.15486622831518,633
충청남도,서천군,부내초등학교 운동장,충청남도 서천군 종천면 종천리 208-60,126.6464378207613,36.10256936568732,727
충청남도,서천군,비인중학교 운동장,충청남도 서천군 비인면 성내리 151,126.60581211377021,36.13916938840332,1169
충청남도,서천군,비인초등학교 운동장,충청남도 서천군 비인면 성내리 212-4,126.6020370994634,36.1421627564803,585
충청남도,서천군,서면중학교,충청남도 서천군 서면 신합리 475-23,126.54964582405626,36.15348450061646,650
충청남도,서천군,서남초등학교 운동장,충청남도 서천군 마서면 봉남리 255,126.67981411993313,36.05840120426258,711
충청남도,서천군,송석초등학교 운동장,충청남도 서천군 마서면 송석리 45-2,126.64391197662992,36.07329727608569,756
충청남도,서천군,마동초등학교 운동장,충청남도 서천군 마서면 송내리 419-1,126.71492692181863,36.02494239220149,899
충청남도,서천군,화양초등학교 운동장,충청남도 서천군 화양면 봉명리 132-2,126.77634231742665,36.04345506888142,850
충청남도,서천군,기산초등학교 운동장,충청남도 서천군 기산면 화산리 216,126.76769854956274,36.07407453181526,1014
충청남도,서천군,한산초등학교 운동장,충청남도 서천군 한산면 지현리 182-1,126.80482637297561,36.086294756316214,926
충청남도,서천군,한산중학교,충청남도 서천군 한산면 성외리 198-0,126.80428237868337,36.09201947128076,830
충청남도,서천군,충남디자인예술고등학교,충청남도 서천군 한산면 성외리 144-0,126.80226362423998,36.08947933930582,1568
경기도,안성시,안성여자중학교 운동장,경기도 안성시 봉남동 360,127.27631823370508,37.007977450949866,2317
경기도,안성시,안법고등학교 운동장,경기도 안성시 구포동 176,127.27380172765439,37.0125021152431,1514
경기도,안성시,안성초등학교 운동장,경기도 안성시 구포동 170,127.27208445882475,37.011929134339226,1861
경기도,안성시,명륜여자중학교 운동장,경기도 안성시 낙원동 399-1,127.27505341829918,37.00493828521061,609
경기도,안성시,안성고등학교 운동장,경기도 안성시 금산동 33-1,127.27131228732388,37.01403361332703,1229
경기도,안성시,안성몽실학교 운동장,경기도 안성시 금산동 119,127.26747315456723,37.01080053348596,1458
경기도,안성시,한경대학교 운동장,경기도 안성시 석정동 63-1,127.26378906097041,37.012043140795925,2530
경기도,김포시,하늘빛초등학교 운동장,경기도 김포시 운양동 1293-2,126.69018122597107,37.65369397337293,1273
경기도,김포시,모담공원,경기도 김포시 운양동 1318-1,126.69622354096536,37.64910858207408,162502
경기도,김포시,조류생태공원,경기도 김포시 운양동 1246-1,126.69246416650569,37.65568093149544,58176
경기도,김포시,한강신도시 근린7공원,경기도 김포시 장기동 1888-15,126.65895911183081,37.64099307382621,30223
경기도,김포시,한강신도시 제8호 어린이공원,경기도 김포시 장기동 1866-4,126.66621681590686,37.6520982733887,1485
경기도,김포시,고창중학교 운동장,경기도 김포시 장기동 1594-0,126.67119467829303,37.641790422852274,1199
경기도,김포시,푸른솔중학교 운동장,경기도 김포시 장기동 1866-3,126.66724018151403,37.65193627726811,785
경기도,안성시,양성초등학교 운동장,경기도 안성시 양성면 동항리 420,127.19472294002303,37.061919605164334,1490
경기도,안성시,미곡초등학교 운동장,경기도 안성시 양성면 노곡리 443,127.24523968471365,37.1103593227583,1144
경기도,안성시,원곡초등학교 운동장,경기도 안성시 원곡면 내가천리 40-2,127.12772326485022,37.04191431203651,1360
경기도,안성시,일죽초등학교 운동장,경기도 안성시 일죽면 주천리 300,127.48183779453515,37.09185210246943,1399
경기도,안성시,방초초등학교 운동장,경기도 안성시 일죽면 방초리 459-2,127.4335648980697,37.11949235830606,1072
경기도,안성시,일죽중고등학교 운동장,경기도 안성시 일죽면 송천리 243-1,127.47336408756404,37.09158213757815,2199
경기도,김포시,대곶초등학교 운동장,경기도 김포시 대곶면 율생리 446-1,126.58448166498759,37.651538409753904,1324
경기도,김포시,김포대명초등학교 운동장,경기도 김포시 대곶면 대명리 366-1,126.55315771995915,37.64786617836791,1476
경기도,김포시,월곶초등학교 운동장,경기도 김포시 월곶면 군하리 84-1,126.5518526623548,37.717452399603076,1123
경기도,김포시,하성고등학교 운동장,경기도 김포시 하성면 마곡리 640-1,126.62815016821335,37.718666720744835,3249
경기도,김포시,하성초등학교 운동장,경기도 김포시 하성면 마곡리 617-1,126.63292022031588,37.71996943571562,1396
경기도,화성시,진안공공공지,경기도 화성시 진안동 933-0,127.031677,37.217979,820
경기도,화성시,진안초등학교 운동장,경기도 화성시 진안동 915,127.04070781618847,37.21681595572827,969
충청남도,서천군,장항초등학교 운동장,충청남도 서천군 장항읍 성주리 420-2,126.70112410525913,36.02051108241004,689
충청남도,서천군,장항중앙초등학교 운동장,충청남도 서천군 장항읍 신창리 45,126.69099385325518,36.012691493738245,1998
충청남도,서천군,충남조선공업고등학교,충청남도 서천군 장항읍 화천리 330-0,126.68615079999995,36.014968,1029
충청남도,서천군,송림초등학교 운동장,충청남도 서천군 장항읍 옥산리 639-5,126.68385246322059,36.0294015196707,945
충청남도,서천군,장항중학교 운동장,충청남도 서천군 장항읍 원수리 923-19,126.70263685448728,36.0079764230969,957
충청남도,서천군,서천중학교 운동장,충청남도 서천군 서천읍 군사리 601,126.69356999062991,36.07523892642942,1658
충청남도,서천군,서천초등학교 운동장,충청남도 서천군 서천읍 군사리 724-1,126.68848045580835,36.07860214991623,833
충청남도,서천군,서천고등학교 운동장,충청남도 서천군 서천읍 사곡리 203,126.6894794110327,36.08576966884219,1704
강원도,홍천군,화계초등학교 운동장,강원도 홍천군 북방면 능평리 74-2,127.84858921591096,37.71086852885969,2853
전라북도,임실군,갈담초등학교 운동장,전라북도 임실군 강진면 갈담리 323-1,127.16555050834558,35.53175547584157,938
경기도,김포시,양도초등학교 운동장,경기도 김포시 풍무동 416-6,126.72031696988232,37.60360927004411,1091
경기도,김포시,풍무5지구 바다어린이공원,경기도 김포시 풍무동 801-0,126.72510631101031,37.59796119777079,581
경기도,김포시,풍무초등학교 운동장,경기도 김포시 풍무동 136-10,126.72632179059016,37.60456100795085,1364
경기도,김포시,솔터고등학교 운동장,경기도 김포시 마산동 615-6,126.63660159749946,37.64123070845917,1022
경기도,김포시,은여울중학교 운동장,경기도 김포시 마산동 639-9,126.63949546842133,37.63765390525629,1111
경기도,화성시,동학초등학교 운동장,경기도 화성시 반월동 165-2,127.05950085628463,37.23284794186672,1221
경기도,화성시,기산초등학교 운동장,경기도 화성시 반월동 705-4,127.05052526143791,37.224465592691885,862
경기도,화성시,율목초등학교 운동장,경기도 화성시 반월동 879-0,127.0644815414839,37.236648930150714,844
경기도,화성시,반월초등학교 운동장,경기도 화성시 반월동 947-0,127.0593051362499,37.223478025285054,826
경기도,화성시,반월체육센터,경기도 화성시 반월동 968-0,127.05413272978629,37.22945843138226,8832
경기도,화성시,행복근린공원,경기도 화성시 반월동 875-0,127.051630,37.222607,1116
전라남도,여수시,나진초등학교 운동장,전라남도 여수시 화양면 나진리 463,127.61223373902406,34.70868711812652,970
전라남도,여수시,여남중/고학교 운동장,전라남도 여수시 남면 우학리 181,127.76770724658556,34.51208499491342,1152
전라남도,여수시,여남초등학교 운동장,전라남도 여수시 남면 우학리 263,127.76636466283556,34.51168256826483,1212
전라남도,여수시,여안초등학교 운동장(폐교),전라남도 여수시 남면 안도리 991,127.8055465404163,34.48547478434974,394
전라남도,여수시,연도초등학교 운동장,전라남도 여수시 남면 연도리 424,127.8008433504385,34.43271745228929,970
전라남도,여수시,화태초등학교 운동장,전라남도 여수시 남면 화태리 313,127.73500850157133,34.585009605431225,1152
전라남도,여수시,개도중학교 운동장,전라남도 여수시 화정면 개도리 1057-0,127.65975367733519,34.57147487522139,1061
전라북도,임실군,섬진중학교 운동장,전라북도 임실군 강진면 회진리 39-1,127.15229992926665,35.527018880608246,1134
전라북도,임실군,덕치초등학교 운동장,전라북도 임실군 덕치면 일중리 221,127.14865995600611,35.49612387805269,673
전라북도,임실군,지사중학교 운동장,전라북도 임실군 지사면 금평리 47-0,127.35940309786075,35.56680023314832,2923
전라북도,임실군,지사초등학교 운동장,전라북도 임실군 지사면 방계리 558,127.3565396888044,35.5639326278882,865
전라북도,순창군,순창초등학교 운동장,전라북도 순창군 순창읍 순화리 313-0,127.8164076,35.22299064,1385
전라북도,순창군,순창여자중학교 운동장,전라북도 순창군 순창읍 순화리 514-2,127.81428,35.22410916,874
전라남도,여수시,돌산공원,전라남도 여수시 돌산읍 우두리 산355-1,127.74168727555735,34.73049434630519,3545
전라남도,여수시,백초초등학교 운동장,전라남도 여수시 돌산읍 우두리 712,127.74415243557134,34.72936368207924,758
전라남도,여수시,강남정공원,전라남도 여수시 돌산읍 우두리 1117-2,127.74924197215462,34.716583253367226,1606
전라남도,여수시,여양고등학교 운동장,전라남도 여수시 소라면 덕양리 1058-0,127.63179811868065,34.788881100370695,1424
전라남도,여수시,소라초등학교 운동장,전라남도 여수시 소라면 덕양리 1220,127.63121055304106,34.79584887912416,1182
전라남도,여수시,율촌초등학교 운동장,전라남도 여수시 율촌면 조화리 182,127.57650488645234,34.88272786953376,1485
전라남도,여수시,신풍초등학교 운동장,전라남도 여수시 율촌면 신풍리 1006-0,127.60965707432123,34.843385588073936,1212
전라북도,익산시,이리모현초등학교 운동장,전라북도 익산시 모현동1가 264-7,126.9396002629184,35.94501292789041,1134
전라북도,익산시,이리남중학교 운동장,전라북도 익산시 모현동1가 890-0,126.93702176280878,35.94581863078711,462
전라북도,익산시,이리북초등학교 운동장,전라북도 익산시 남중동 7-4,126.96038772567975,35.95237569815423,1278
전라북도,익산시,이리고등학교 운동장,전라북도 익산시 남중동 218-1,126.95579064298364,35.948854725180496,1424
전라북도,익산시,전북기계공고등학교 운동장,전라북도 익산시 남중동 55-1,126.96027314913357,35.948384206784084,3394
전라북도,익산시,이리고현초등학교 운동장,전라북도 익산시 모현동1가 73-0,126.94747558226878,35.95181823359835,1104
전라남도,여수시,웅천초등학교 운동장,전라남도 여수시 웅천동 1674,127.67472184277902,34.74990947139152,818
전라남도,여수시,여천고등학교 운동장,전라남도 여수시 선원동 54,127.6616112544485,34.771109146225015,1758
전라남도,여수시,무선초등학교 운동장,전라남도 여수시 화장동 776,127.64553044341818,34.77220447559928,909
전라남도,여수시,여천초등학교 운동장,전라남도 여수시 주삼동 793,127.65524076112354,34.7881778808755,1879
전라남도,여수시,여도초등학교 운동장,전라남도 여수시 봉계동 37,127.6944042296117,34.7850051508335,1667
전라남도,여수시,상암초등학교 묘도분교장 운동장,전라남도 여수시 묘도동 910-1,127.7094266588012,34.875288180765466,788
전라남도,여수시,봉덕초등학교 운동장,전라남도 여수시 돌산읍 죽포리 1623,127.77834170978709,34.64207764849735,939
전라북도,익산시,이리초등학교 운동장,전라북도 익산시 마동 260-2,126.95924767028693,35.939882544078266,1299
전라북도,익산시,익산지원중학교 운동장,전라북도 익산시 마동 291-3,126.96107959787841,35.93968918297013,828
전라북도,익산시,이리서초등학교 운동장,전라북도 익산시 남중동 458-7,126.94849512161146,35.945641800544934,345
전라북도,익산시,이리남창초등학교 운동장,전라북도 익산시 남중동 252-2,126.9540700961397,35.94464238324007,1182
전라북도,익산시,이리공고등학교 운동장,전라북도 익산시 남중동 379-2,126.95407555723997,35.95306006421027,2200
전라북도,익산시,이리여고등학교 운동장,전라북도 익산시 남중동 246-4,126.95198963659936,35.945211752217865,843
전라남도,여수시,종고초등학교 운동장,전라남도 여수시 덕충동 111,127.74379583827593,34.74989160288285,1061
전라남도,여수시,쌍봉초등학교 운동장,전라남도 여수시 학동 238,127.66793616704973,34.76357034888309,2061
전라남도,여수시,거북선공원,전라남도 여수시 학동 162-0,127.66646214777928,34.76128607546987,1636
전라남도,여수시,부영여자고등학교 운동장,전라남도 여수시 안산동 657-1,127.65166776700545,34.75880098659503,818
전라남도,여수시,안심초등학교 운동장,전라남도 여수시 소호동 428,127.64679277267636,34.739855385414245,667
전라남도,여수시,시전초등학교 운동장,전라남도 여수시 신기동 136,127.67196156824548,34.756762995409765,1242
전라남도,여수시,신기초등학교 운동장,전라남도 여수시 신기동 75-3,127.67564270090644,34.76079879049995,606
전라남도,여수시,부영초등학교 운동장,전라남도 여수시 여서동 592,127.7003376914006,34.74551267467212,939
전라남도,여수시,여수정보과학고등학교 운동장,전라남도 여수시 문수동 182,127.69880983271528,34.75231391443686,3091
전라남도,여수시,여문공원,전라남도 여수시 문수동 126-0,127.70143594433485,34.753669606872286,485
전라남도,여수시,여수문수중학교 운동장,전라남도 여수시 문수동 171,127.70018199315874,34.75353149848683,1242
전라남도,여수시,진남여자중학교 운동장,전라남도 여수시 미평동 328,127.70651711968561,34.77010422394119,1061
전라남도,여수시,양지초등학교 운동장,전라남도 여수시 미평동 762,127.70108577652758,34.77260337245378,1242
전라남도,여수시,여수북초등학교 운동장,전라남도 여수시 만흥동 313-1,127.74285169549677,34.77754045206271,939
전라북도,익산시,중앙체육공원 공터,전라북도 익산시 어양동 52-0,126.98690080489374,35.94925572259241,2643
전라북도,익산시,이리신흥초등학교 운동장,전라북도 익산시 금강동 349-1,126.9788236041262,35.93445001201914,1451
전라북도,익산시,이리팔봉초등학교 운동장,전라북도 익산시 팔봉동 403-1,127.01279123130615,35.96701683651608,1383
전라북도,익산시,전북 혜화학교 운동장,전라북도 익산시 덕기동 738-1,127.0309480821802,35.966741054370026,556
전라북도,익산시,이리삼성초등학교 운동장,전라북도 익산시 임상동 227-1,126.97586318584224,35.988098137613214,1591
전라북도,익산시,원광고등학교 운동장,전라북도 익산시 부송동 9-4,127.00108565726246,35.97300824490756,1369
전라북도,익산시,어양중학교 운동장,전라북도 익산시 부송동 672-1,126.98481417574922,35.96464261568235,1220
전라북도,익산시,이리신동초등학교 운동장,전라북도 익산시 신동 626-2,126.9673266892495,35.961300836254956,602
전라북도,익산시,여산고등학교 운동장,전라북도 익산시 여산면 두여리 716-1,127.08211638125523,36.06633983269989,2170
전라북도,익산시,여산중학교 운동장,전라북도 익산시 여산면 두여리 716-0,127.08092998326781,36.066497993878116,2317
전라북도,익산시,황등중학교 운동장,전라북도 익산시 황등면 황등리 626-1,126.94618289922357,36.007713140557655,193
전라북도,익산시,진경여고등학교 운동장,전라북도 익산시 황등면 황등리 955-0,126.94118058796647,36.00430077250999,1156
전라북도,익산시,성일고등학교 운동장,전라북도 익산시 황등면 황등리 626-1,126.94694582702999,36.007514568914665,2525
전라북도,익산시,황등초등학교 운동장,전라북도 익산시 황등면 황등리 1739-54,126.94560271688995,36.00942995392655,2975
전라북도,익산시,황등남초등학교 운동장,전라북도 익산시 황등면 황등리 963-3,126.9392764117426,36.00346778954188,693
전라북도,익산시,진경여중학교 운동장,전라북도 익산시 황등면 동연리 620-0,126.93284876289034,36.00052762947878,980
전라북도,익산시,함열여중학교 운동장,전라북도 익산시 함열읍 남당리 586-12,126.9698081139295,36.08298593842758,850
전라북도,익산시,함열여고등학교 운동장,전라북도 익산시 함열읍 남당리 586-0,126.96846259836757,36.08407710101095,1342
전라북도,익산시,다송초등학교 운동장,전라북도 익산시 함열읍 다송리 477-1,126.95539064275545,36.041133103345956,1279
전라북도,익산시,영만초등학교 운동장,전라북도 익산시 오산면 장신리 1129-0,126.93126836691609,35.94737318220562,502
전라북도,익산시,백제고등학교 운동장,전라북도 익산시 오산면 장신리 962-0,126.90895889875205,35.95276697217727,988
전라북도,익산시,오산초등학교 운동장,전라북도 익산시 오산면 오산리 25-1,126.91546366437812,35.941656341521124,1822
전라북도,정읍시,정주고등학교 운동장,전라북도 정읍시 금붕동 415-0,126.88989879696993,35.54355400897686,1812
전라북도,정읍시,교암초등학교 운동장,전라북도 정읍시 교암동 323-3,126.84631957129662,35.526506269825596,2497
전라북도,정읍시,영산초등학교 운동장,전라북도 정읍시 하북동 151-3,126.86301864772291,35.59919395137927,1750
전라북도,정읍시,배영고등학교 운동장,전라북도 정읍시 흑암동 520-0,126.81337310200391,35.60115057359178,4141
전라북도,정읍시,정일초등학교 운동장,전라북도 정읍시 용계동 332-0,126.82036852507159,35.589931449092624,934
전라북도,정읍시,정일중학교운동장,전라북도 정읍시 공평동 348,126.83040120791684,35.58161845408121,1080
경상북도,성주군,대가초등학교 운동장,경상북도 성주군 대가면 옥련리 533,128.22247979758166,35.90882653909397,3476
경상북도,성주군,벽진체육공원 공터,경상북도 성주군 벽진면 봉계리 1442-78,128.22162766812755,35.94085068748668,1606
경상북도,성주군,벽진초등학교 운동장,경상북도 성주군 벽진면 수촌리 759-1,128.21569957955168,35.95095418238538,2515
경상북도,성주군,벽진중학교 운동장,경상북도 성주군 벽진면 수촌리 63-1,128.21214168864887,35.960286661199085,6855
경상북도,성주군,벽진문화센터 공터,경상북도 성주군 벽진면 수촌리 824,128.21674069426496,35.94730953222384,1665
전라남도,여수시,구봉중학교 운동장,전라남도 여수시 국동 878,127.71459151430707,34.7318772837228,2545
전라남도,여수시,신월초등학교 운동장,전라남도 여수시 신월동 9-22,127.7139621755697,34.72702778047346,970
전라북도,익산시,석불초등학교 운동장,전라북도 익산시 삼기면 연동리 643-2,127.0066159218716,36.02980107327317,998
전라북도,익산시,흥왕초등학교 운동장,전라북도 익산시 용동면 흥왕리 221-0,126.99702004852321,36.10477715085517,1625
전라북도,정읍시,정읍수성초등학교 운동장,전라북도 정읍시 수성동 917-3,126.85667193228787,35.58418816675888,1445
전라북도,정읍시,정읍초등학교 운동장,전라북도 정읍시 수성동 171-0,126.86291556424693,35.58761147434985,1160
전라북도,정읍시,정읍제일고등학교 운동장,전라북도 정읍시 수성동 443-0,126.85361885775819,35.57079846650435,2227
전라북도,정읍시,수성동 근린공원,전라북도 정읍시 수성동 931-0,126.8536102091902,35.5817101952972,2909
전라북도,정읍시,소성초등학교 운동장,전라북도 정읍시 소성면 보화리 178-6,126.7779812468638,35.555072852165225,688
전라북도,정읍시,소성중학교 운동장,전라북도 정읍시 소성면 등계리 909-0,126.78540746276343,35.556001676974546,1818
전라북도,정읍시,고부중학교 운동장,전라북도 정읍시 고부면 관청리 579-1,126.74132239999994,35.6143781,3094
전라북도,정읍시,고부초등학교 운동장,전라북도 정읍시 고부면 고부리 161-0,126.77160415273393,35.62124531446106,1212
전라북도,정읍시,영원초등학교 운동장,전라북도 정읍시 영원면 은선리 713-2,126.78442598055581,35.65543183840438,1765
전라북도,정읍시,도학초등학교 운동장,전라북도 정읍시 덕천면 하학리 243-1,126.81891937892823,35.62847288041792,909
전라남도,순천시,순천전자고등학교 운동장,전라남도 순천시 서면 동산리 107,127.48769559662058,34.997969727697196,700
전라남도,순천시,황전초등학교 운동장,전라남도 순천시 황전면 수평리 309-1,127.43021488747996,35.09988773551629,673
전라남도,순천시,주암초등학교 운동장,전라남도 순천시 주암면 구산리 721-0,127.24016888995294,35.07634935630036,2058
전라남도,순천시,송광초등학교 운동장,전라남도 순천시 송광면 이읍리 751,127.26722866737933,34.96122379479674,1524
전라남도,순천시,외서초등학교 운동장,전라남도 순천시 외서면 월암리 161,127.2732722621067,34.91622282111473,458
전라남도,순천시,순천낙안중학교 운동장,전라남도 순천시 낙안면 교촌리 247-1,127.34571049306496,34.901471633149136,824
경상북도,성주군,공원(복지회관옆) 공터,경상북도 성주군 대가면 옥성리 753-1,128.22989685848182,35.90962508261868,395
전라남도,순천시,순천왕조초등학교 운동장,전라남도 순천시 조례동 1669,127.51388159352545,34.9605034464135,197
전라남도,순천시,순천이수초등학교 운동장,전라남도 순천시 조례동 1283,127.51186539946447,34.94999199454369,409
전라남도,순천시,조례호수공원,전라남도 순천시 조례동 1867-0,127.52423199724824,34.96776004606643,9794
전라남도,순천시,승주초등학교 운동장,전라남도 순천시 승주읍 서평리 546-1,127.38025422188466,35.016734862814566,824
전라남도,순천시,신대23공원,전라남도 순천시 해룡면 신대리 2102-0,127.54676274167967,34.92487439935813,3277
전라남도,순천시,신대21공원,전라남도 순천시 해룡면 신대리 2090-0,127.55172254474131,34.93119586260601,4161
전라남도,순천시,신대22공원,전라남도 순천시 해룡면 신대리 2099-0,127.55095510652893,34.92898802767323,4733
전라남도,순천시,버드내1공원,전라남도 순천시 해룡면 상삼리 690,127.5278384809903,34.946473950142284,3030
경상북도,봉화군,물야초등학교,경상북도 봉화군 물야면 오록리 545-3,128.73700888363692,36.97935458672524,942
경상북도,봉화군,물야중학교,경상북도 봉화군 물야면 오록리 465,128.73811546548086,36.97797648797969,1870
경상북도,봉화군,봉성초등학교,경상북도 봉화군 봉성면 봉성리 526-1,128.8147185844608,36.88563611880543,1250
경상북도,봉화군,법전중앙초등학교,경상북도 봉화군 법전면 법전리 39-3,128.87740456872132,36.91437053388798,845
경상북도,봉화군,춘양초등학교 눌산분교(폐교),경상북도 봉화군 법전면 눌산리 1134-2,128.95319944009867,36.893279635915746,384
경상북도,봉화군,춘양초등학교,경상북도 봉화군 춘양면 의양리 341,128.91505693736704,36.93950299749525,3992
전라남도,순천시,순천남산초등학교 운동장,전라남도 순천시 풍덕동 1102-18,127.49553183124951,34.938241267889154,1773
전라남도,순천시,풍덕공원,전라남도 순천시 풍덕동 1287,127.49852965641014,34.93987746734502,1339
전라남도,순천시,순천남초등학교 운동장,전라남도 순천시 저전동 90-3,127.48268526900785,34.95030258499488,1667
전라남도,순천시,장천공원,전라남도 순천시 장천동 81,127.48705365482765,34.94881868356119,670
전라남도,순천시,중앙공원,전라남도 순천시 동외동 176-0,127.48627043700466,34.95769336003892,1515
전라남도,순천시,순천도사초등학교 운동장,전라남도 순천시 홍내동 637-3,127.5001185262266,34.91451934562393,1636
전라남도,순천시,순천신흥초등학교 운동장,전라남도 순천시 조례동 1615,127.52812610259551,34.95372504939143,258
